business_id,name,address,city,state,postal_code,latitude,longitude,phone_number
87593,"SICILIAN PIZZA AND PASTA",627 S 4TH ST,LOUISVILLE,KY,40202,38.2478444000,-85.7580562000,(502) 457-3206
87607,"DOC CROWS SMOKEHOUSE",127 W. MAIN STREET,LOUISVILLE,KY,40202,38.2563000000,-85.7532000000,(502) 974-3482
87609,"LOGANS ROADHOUSE",1540 ALLIANT AVE,LOUISVILLE,KY,40299,38.2205030000,-85.5379440000,(502) 266-6009
32112,"CHEDDAR BOX",3909 CHENOWETH SQUARE,LOUISVILLE,KY,40207,38.2548871000,-85.6542761000,(502) 897-2334
32114,"CORNER CAFE AND PIZZERIA",9307 NEW LAGRANGE ROAD,LOUISVILLE,KY,40242,38.2684657000,-85.5804428000,(502) 426-8119
31334,"GOOD SAMARITAN",3500 GOOD SAMARITAN WAY,LOUISVILLE,KY,40299,38.1964285000,-85.5624782000,(502) 267-7403
32910,"BLUE HORSE",830 PHILLIPS LN,LOUISVILLE,KY,40209,38.1921182000,-85.7407115000,(502) 367-2251
32905,"EXECUTIVE STRIKE AND SPARE",911 PHILLIPS LN,LOUISVILLE,KY,40209,38.1923888000,-85.7414482000,(502) 367-2251
32724,"MOOSE LODGE #5",4615 FEGENBUSH LN,LOUISVILLE,KY,40228,38.1820070000,-85.6371560000,(502) 499-8875
32727,"RUTHS CHRIS STEAK HOUSE",6100 DUTCHMANS LN,LOUISVILLE,KY,40205,38.2283326000,-85.6393450000,(502) 479-0026
32659,"BIG SPRING MAIN KITCHEN",5901 DUTCHMANS LN,LOUISVILLE,KY,40205,38.2312090000,-85.6502840000,(502) 459-2622
32660,"JEWISH COMMUNITY CENTER",3600 DUTCHMANS LN,LOUISVILLE,KY,40205,38.2251280000,-85.6496200000,(502) 458-3281
32733,"WHITE CASTLE #10",793 EASTERN PKWY,LOUISVILLE,KY,40217,.0000000000,.0000000000,(502) 634-3322
32765,"WOMANS CLUB OF LOUISVILLE",1320 S 4TH ST,LOUISVILLE,KY,40208,38.2321130000,-85.7612820000,(502) 634-9437
32773,"WHIRLAWAY",2532 S 4TH ST,LOUISVILLE,KY,40208,38.2117690000,-85.7646870000,(502) 384-7999
32358,"ARBYS #5430",10704 DIXIE HWY,LOUISVILLE,KY,40272,38.0981914000,-85.8725224000,(502) 935-1329
32384,"STRATHMOOR EDUCATION CENTER",2201 HAWTHORNE AVE,LOUISVILLE,KY,40205,38.2169930000,-85.6763196000,(502) 458-6585
32531,"BOYS AND GIRLS HAVEN #1",2301 GOLDSMITH LN,LOUISVILLE,KY,40218,38.2101954000,-85.6657655000,(502) 458-1471
32802,"KFC Y052-016",5012 S. 3RD STREET,LOUISVILLE,KY,40214,38.1740522000,-85.7677809000,(502) 366-2673
32804,"ARBYS #194",5022 S 3RD ST,LOUISVILLE,KY,40214,38.1736147000,-85.7678725000,(502) 366-8435
32815,"HITCHING POST INN",7314 FEGENBUSH LN,LOUISVILLE,KY,40228,38.1430773000,-85.6241682000,(502) 239-4724
32339,"TACO BELL #3677",6800 BARDSTOWN RD,LOUISVILLE,KY,40291,38.1472388000,-85.5863452000,(502) 239-2131
32140,"ARBYS #5412",6216 BARDSTOWN RD,LOUISVILLE,KY,40291,38.1556665000,-85.5902843000,(502) 239-3203
32534,"KRAZY DAVES NEIGHBORHOOD PUB AND GRILL",2817 DEL RIO PL,LOUISVILLE,KY,40220,38.2145880000,-85.6543810000,(502) 403-6101
32535,"DES PRES PARK CONCESSION",4709 LOWE RD,LOUISVILLE,KY,40222,38.2226423000,-85.6047840000,(502) 643-6038
32536,"BOURBON STREET CAFE",850 DIXIE HWY,LOUISVILLE,KY,40210,38.2449542000,-85.7837237000,(502) 774-7156
32537,"KINGS FRIED CHICKEN",1302 DIXIE HWY,LOUISVILLE,KY,40210,38.2353056000,-85.7878441000,(502) 776-3013
32818,"FORD MOTOR CO CAFETERIA",2000 FERN VALLEY RD,LOUISVILLE,KY,40232,38.1547970000,-85.7252050000,(502) 366-9511
32827,"LONG RUN GOLF CLUB",1605 FLAT ROCK RD,LOUISVILLE,KY,40223,38.2647874000,-85.4259871000,(502) 245-9015
32829,"JOHN OBRYANS",4123 FLINTLOCK DR,LOUISVILLE,KY,40216,38.1602030000,-85.8340572000,(502) 449-4940
32841,"PATRICKS LIQUOR BAR",3202 FRANKFORT AVE,LOUISVILLE,KY,40206,38.2541240000,-85.6752640000,(502) 897-9697
32553,"CAPTAIN DS #3329",3937 DIXIE HWY,LOUISVILLE,KY,40217,38.1935820000,-85.8066860000,(502) 447-4582
32564,"JERRYS RESTAURANT #1018",4832 DIXIE HWY,LOUISVILLE,KY,40216,38.1719336000,-85.8260138000,(502) 447-4610
32571,"LOGANS ROADHOUSE",5229 DIXIE HWY,LOUISVILLE,KY,40216,38.1615266000,-85.8316953000,(502) 448-0577
32578,"WHITE CASTLE #19",7400 DIXIE HWY,LOUISVILLE,KY,40258,38.1428715000,-85.8402109000,(502) 935-0421
32579,"BONNIE AND CLYDES PIZZA",7611 DIXIE HWY,LOUISVILLE,KY,40258,38.1401730000,-85.8406990000,(502) 935-5540
32587,"WENDYS #170232",8596 DIXIE HWY,LOUISVILLE,KY,40258,38.1282423000,-85.8497431000,(502) 935-1242
32593,"MCDONALDS #1",8600 DIXIE HWY,LOUISVILLE,KY,40258,38.1276407000,-85.8505453000,(502) 935-2762
32852,"PIZZA HUT #013414",2508 PRESTON HIGHWAY,LOUISVILLE,KY,40217,38.2123000000,-85.7414000000,(502) 634-8322
32866,"KFC EMPLOYEES CAFETERIA",1441 GARDINER LN,LOUISVILLE,KY,40213,38.1992240000,-85.6945210000,(502) 459-8600
32870,"ICE ARENA CONCESSIONS",1825 GARDINER LN,LOUISVILLE,KY,40205,38.2077585000,-85.6825494000,(502) 459-9500
32874,"BROWN FORMAN EMPLOYEE CAFE",1809 GARLAND AVE,LOUISVILLE,KY,40210,38.2445000000,-85.7848000000,(502) 585-1100
32877,"ALA CART CAFE",3101 BARDSTOWN RD,LOUISVILLE,KY,40205,38.2130390000,-85.6703190000,(502) 458-6504
32879,"MARYHURST SCHOOL",1015 DORSEY LN,LOUISVILLE,KY,40223,38.2644810000,-85.5614010000,(502) 245-1576
32604,"MOBY DICK",9150 DIXIE HWY,LOUISVILLE,KY,40272,38.1214230000,-85.8560250000,(502) 935-6565
32608,"DOMINOS PIZZA #1431",10011 DIXIE HWY,LOUISVILLE,KY,40272,38.1095891000,-85.8650405000,(502) 935-3030
32609,"CAPTAIN DS #3532",10101 DIXIE HWY,LOUISVILLE,KY,40272,38.1087000000,-85.8653340000,(502) 935-7350
32611,"KFC",10103 DIXIE HWY,LOUISVILLE,KY,40272,38.1085790000,-85.8656290000,(502) 937-0574
32613,"DIXIE BOWL",10526 DIXIE HWY,LOUISVILLE,KY,40272,38.1017219000,-85.8705242000,(502) 937-7900
29790,"ANGIOS",3731 BARDSTOWN RD,LOUISVILLE,KY,40218,38.1974502000,-85.6565890000,(502) 451-5454
34493,"OWL CREEK COMM. SNACK BAR",10607 HOBBS STATION RD,LOUISVILLE,KY,40223,38.2577954000,-85.5564658000,(502) 244-2550
34512,"QUICK WOK",801 W BROADWAY,LOUISVILLE,KY,40203,38.2466881000,-85.7650962000,(502) 584-6519
34944,"610 MAGNOLIA",610 W MAGNOLIA ST,LOUISVILLE,KY,40208,.0000000000,.0000000000,(502) 636-0783
34955,"BEARNOS BY THE BRIDGE",133 W. MAIN ST,LOUISVILLE,KY,40202,38.2561418000,-85.7521199000,(502) 584-7720
33032,"HAZELWOOD CENTER",1800 BLUEGRASS AVE,LOUISVILLE,KY,40215,38.1795678000,-85.7926422000,(502) 361-2301
34624,"PIZZA HUT #013415",4211 SHELBYVILLE ROAD,LOUISVILLE,KY,40207,38.2519470000,-85.6383819000,(502) 895-4518
34628,"ORIENTAL HOUSE",4302 SHELBYVILLE RD,LOUISVILLE,KY,40207,38.2506840000,-85.6350740000,(502) 897-1017
34630,"AMERICAN LEGION",4610 SHELBYVILLE RD,LOUISVILLE,KY,40207,38.2489480000,-85.6279260000,(502) 896-4734
34632,"OUTBACK STEAKHOUSE",4621 SHELBYVILLE RD,LOUISVILLE,KY,40207,38.2505503000,-85.6265934000,(502) 895-4329
34635,"FRISCHS BIG BOY #154",4800 SHELBYVILLE RD,LOUISVILLE,KY,40207,38.2500320000,-85.6278180000,(502) 897-9818
34636,"MOBY DICK",4848 SHELBYVILLE ROAD,LOUISVILLE,KY,40207,38.2502980000,-85.6274430000,(502) 897-0614
34643,"AMVETS POST 9",1567 S SHELBY ST,LOUISVILLE,KY,40217,38.2223090000,-85.7428510000,(502) 637-1900
34648,"LE RELAIS",2817 TAYLORSVILLE ROAD,LOUISVILLE,KY,40205,38.2227822000,-85.6669034000,(502) 451-9020
34667,"HURSTBOURNE COUNTRY CLUB",9000 HURSTBOURNE CLUB LN,LOUISVILLE,KY,40222,38.2396540000,-85.5917740000,(502) 425-6094
34973,"OLIVE GARDEN #1327",1320 S HURSTBOURNE PKWY,LOUISVILLE,KY,40222,.0000000000,.0000000000,(502) 339-7190
34977,"WHITE CASTLE #7",105 E MARKET ST,LOUISVILLE,KY,40202,38.2547734000,-85.7513545000,(502) 583-0466
34984,"DEL FRISCOS",4107 OECHSLI AVENUE,LOUISVILLE,KY,40207,38.2548000000,-85.6459000000,(502) 897-7077
34264,"VALHALLA GOLF CLUB",15503 SHELBYVILLE RD,LOUISVILLE,KY,40018,38.2428400000,-85.4744570000,(502) 245-4475
34267,"BASKIN ROBBINS",10264 SHELBYVILLE ROAD,LOUISVILLE,KY,40222,.0000000000,.0000000000,(502) 244-6883
34272,"WHITE CASTLE #17",3705 BARDSTOWN RD,LOUISVILLE,KY,40218,38.1989403000,-85.6593563000,(502) 458-1055
34291,"BAMBOO HOUSE",4036 POPLAR LEVEL RD,LOUISVILLE,KY,40213,38.1996190000,-85.7086740000,(502) 451-3113
34736,"HIKES POINT BAR AND LOUNGE",3937 TAYLORSVILLE ROAD,LOUISVILLE,KY,40220,38.2199553000,-85.6280976000,(502) 451-6137
34742,"WENDYS",4041 TAYLORSVILLE RD,LOUISVILLE,KY,40220,38.2199238000,-85.6219631000,(502) 454-4602
34732,"KFC Y052-004",3905 TAYLORSVILLE RD,LOUISVILLE,KY,40220,38.2203802000,-85.6299266000,(502) 459-8477
34760,"OUTLOOK INN",916 BAXTER AVE,LOUISVILLE,KY,40204,38.2421199000,-85.7259059000,(502) 583-4661
34763,"KFC",10224 TAYLORSVILLE RD,LOUISVILLE,KY,40299,38.1950730000,-85.5671400000,(502) 267-0589
34765,"MOBY DICK RESTAURANT",10305 TAYLORSVILLE RD,LOUISVILLE,KY,40299,38.1953920000,-85.5662140000,(502) 267-8713
34996,"LOS AZTECAS",530 W MAIN ST,LOUISVILLE,KY,40202,38.2566490000,-85.7595520000,(502) 561-8535
34674,"HOMETOWN PIZZA",11804 SHELBYVILLE ROAD,LOUISVILLE,KY,40243,38.2472803000,-85.5380752000,(502) 244-3638
34675,"DAIRY QUEEN",11806 SHELBYVILLE ROAD,LOUISVILLE,KY,40243,.0000000000,.0000000000,(502) 245-0800
34676,"MOBY DICK",12012 SHELBYVILLE RD,LOUISVILLE,KY,40243,38.2484271000,-85.5324949000,(502) 244-2879
34679,"RUMORS",12339 SHELBYVILLE RD,LOUISVILLE,KY,40243,38.2471140000,-85.5268100000,(502) 245-0366
34680,"MCDONALDS #16",12341 SHELBYVILLE RD,LOUISVILLE,KY,40243,38.2468560000,-85.5262290000,(502) 245-1717
34681,"MIDLAND TRAIL GOLF COURSE",15360 SHELBYVILLE RD,LOUISVILLE,KY,40223,38.2360823000,-85.4745959000,(502) 245-0223
34685,"ROBBENS ROOST",5906 SIX MILE LN,LOUISVILLE,KY,40220,38.1953330000,-85.6504230000,(502) 491-7178
34292,"MARMADUKES",4206 POPLAR LEVEL RD,LOUISVILLE,KY,40213,38.1984300000,-85.7082760000,(502) 452-1390
34295,"FIESTA MEXICAN #3",4507 BARDSTOWN RD,LOUISVILLE,KY,40218,38.1831380000,-85.6292150000,(502) 491-2982
34301,"WILDWOOD COUNTRY CLUB KITCHEN",5000 BARDSTOWN RD,LOUISVILLE,KY,40291,38.1725340000,-85.6175620000,(502) 499-1261
34305,"HUNGRY PELICAN",5412 BARDSTOWN RD,LOUISVILLE,KY,40291,38.1666119000,-85.6017615000,(502) 239-7145
34307,"FERN BOWL SNACK BARLOUNGE",5518 BARDSTOWN RD,LOUISVILLE,KY,40291,38.1649470000,-85.6005280000,(502) 239-6210
34687,"SOUTH PARK COUNTRY CLUB",915 S PARK RD,LOUISVILLE,KY,40118,.0000000000,.0000000000,(502) 969-7125
34692,"KENBOWL LANES",7021 SOUTHSIDE DR,LOUISVILLE,KY,40214,38.1547530000,-85.7644761000,(502) 631-1732
34696,"SPRING STREET BAR AND GRILL",300 S SPRING ST,LOUISVILLE,KY,40206,38.2512090000,-85.7192080000,(502) 584-6630
34773,"FOXY LADY",1715 BERRY BLVD,LOUISVILLE,KY,40215,38.1969212000,-85.7941893000,(502) 366-3273
34779,"LAKESIDE CLUB",2010 TREVILLIAN WAY,LOUISVILLE,KY,40205,38.2204210000,-85.6863800000,(502) 454-4585
34783,"LOUISVILLE COUNTRY CLUB",40 MOCKINGBIRD VALLEY DR,LOUISVILLE,KY,40207,38.2779200000,-85.6762770000,(502) 896-1721
34786,"KINGFISH #2",3021 UPPER RIVER RD,LOUISVILLE,KY,40207,38.2825742000,-85.6798900000,(502) 895-0544
34788,"LOUISVILLE BOAT CLUB  MAIN KITCHEN",4200 RIVER RD,LOUISVILLE,KY,40207,38.2914890000,-85.6749570000,(502) 896-0375
34318,"DOMINOS PIZZA #1422",3951 TAYLORSVILLE ROAD,LOUISVILLE,KY,40220,38.1863454000,-85.4464132000,(502) 456-4705
34320,"ANNIES PIZZA",2520 PORTLAND AVE,LOUISVILLE,KY,40212,38.2707630000,-85.7898920000,(502) 776-2377
34326,"CENTERSTONE",600 S PRESTON ST,LOUISVILLE,KY,40202,38.2475405000,-85.7474703000,(502) 583-3951
34715,"WENDYS",3422 TAYLOR BLVD,LOUISVILLE,KY,40215,38.1988018000,-85.7830533000,(502) 366-4701
34716,"GOLDEN STAR",3458 TAYLOR BLVD,LOUISVILLE,KY,40215,38.1970791000,-85.7829234000,(502) 368-1833
34720,"WYANDOTTE TAVERN",3700 TAYLOR BLVD,LOUISVILLE,KY,40215,38.1910079000,-85.7837950000,(502) 363-9165
34789,"LOUISVILLE BOAT CLUB SNACK BAR",4200 RIVER RD,LOUISVILLE,KY,40207,38.2914890000,-85.6749570000,(502) 896-0375
34791,"RIVER VALLEY CLUB",4701 UPPER RIVER RD,LOUISVILLE,KY,40222,38.3055000000,-85.6598000000,(502) 564-3070
34792,"CUNNINGHAMS CREEKSIDE",6301 UPPER RIVER RD,HARRODS CREEK,KY,40027,38.3612767000,-85.6434581000,(502) 228-3625
34800,"COACH LAMP RESTAURANT AND PUB",751 VINE ST,LOUISVILLE,KY,40204,38.2417352000,-85.7344280000,(502) 583-9165
34802,"KNIGHTS OF COLUMBUS",4417 RIVER RD,LOUISVILLE,KY,40207,38.2984430000,-85.6680499000,(502) 893-2220
35015,"CHARLIE VETTINER GOLF COURSE",10207 MARY DELL LN,LOUISVILLE,KY,40299,38.1738400000,-85.5664370000,(502) 267-9958
35019,"CAPORAL II",2209 MEADOW DR,LOUISVILLE,KY,40218,38.2044719000,-85.6642769000,(502) 473-7840
35028,"CAPTAIN DS #3517",3801 OAKLAWN DR,LOUISVILLE,KY,40219,38.1492090000,-85.6920650000,(502) 968-5119
34335,"GODFATHER II",5000 PRESTON HWY,LOUISVILLE,KY,40213,38.1751590000,-85.7138370000,(502) 964-9610
34338,"WENDYS",5101 PRESTON HWY,LOUISVILLE,KY,40213,38.1746618000,-85.7121777000,(502) 968-5358
34351,"TRIXIES",6114 PRESTON HWY,LOUISVILLE,KY,40219,38.1621956000,-85.7002251000,(502) 969-6199
34811,"LEES RESTAURANT",1941 BISHOP LN,LOUISVILLE,KY,40218,38.2029710000,-85.6836129000,(502) 456-9714
34812,"ORIENTAL STAR",4212 BISHOP LN,LOUISVILLE,KY,40218,38.2003069000,-85.6860511000,(502) 452-9898
34814,"WAFFLE HOUSE #179",4320 BISHOP LN,LOUISVILLE,KY,40218,38.1985240000,-85.6868329000,(502) 458-6434
34817,"VFW POST 1181",6518 BLEVINS GAP RD,LOUISVILLE,KY,40272,38.0696299000,-85.8837700000,(502) 937-9066
34827,"BONNYCASTLE CLUB",1951 BONNYCASTLE AVE,LOUISVILLE,KY,40205,38.2305230000,-85.7054886000,(502) 451-3299
35038,"STRIKE AND SPARE FAMILY FUN CENTER",6220 OLD SHEPHERDSVILLE RD,LOUISVILLE,KY,40228,38.1957697000,-85.6612815000,(502) 968-2695
34727,"AIR DEVILS INN",2802 TAYLORSVILLE RD,LOUISVILLE,KY,40205,38.2228118000,-85.6681288000,(502) 454-9911
34729,"BEARNOS RESTAURANT",2900 TAYLORSVILLE RD,LOUISVILLE,KY,40205,38.2223803000,-85.6655931000,(502) 458-8605
34259,"POPEYES",3317 BARDSTOWN RD,LOUISVILLE,KY,40218,38.2074117000,-85.6675721000,(502) 459-3770
34358,"EL NOPAL",6300 BARDSTOWN RD,LOUISVILLE,KY,40291,38.1547000000,-85.5903690000,(502) 231-4249
34363,"PIZZA HUT #013416",7509 PRESTON HWY,LOUISVILLE,KY,40219,38.1427530000,-85.6885230000,(502) 964-5986
34366,"ARBYS #325",7708 PRESTON HWY,LOUISVILLE,KY,40219,38.1393580000,-85.6878490000,(502) 968-6921
34371,"GOLDEN BUDDHA RESTAURANT",8000 PRESTON HWY,LOUISVILLE,KY,40219,38.1363286000,-85.6860862000,(502) 968-7700
34833,"GALT CAFE MAGNOLIA",140 N 4TH ST,LOUISVILLE,KY,40202,38.2580180000,-85.7567520000,(502) 589-5200
34835,"GALT AL JS AND THELMAS DELI",140 N 4TH ST,LOUISVILLE,KY,40202,38.2580180000,-85.7567520000,(502) 589-5200
34837,"GALT PRODUCTION ROOM SERVICE",140 N 4TH ST,LOUISVILLE,KY,40202,38.2580180000,-85.7567520000,(502) 589-5200
34838,"TACO BELL #3450",5414 NEW CUT RD,LOUISVILLE,KY,40214,38.1496945000,-85.7765255000,(502) 368-4907
34839,"GALT RIVUE",140 N 4TH ST,LOUISVILLE,KY,40202,38.2580180000,-85.7567520000,(502) 589-3100
34842,"GALT JOCKEY SILKS BOURBON BAR",140 N 4TH ST,LOUISVILLE,KY,40202,38.2580180000,-85.7567520000,(502) 589-5200
34844,"MOBY DICK WINKLER",2700 S. 3RD ST,LOUISVILLE,KY,40208,38.2099309000,-85.7632799000,(502) 636-2848
34845,"KFC",5462 NEW CUT RD,LOUISVILLE,KY,40214,38.1464400000,-85.7759899000,(502) 366-4136
34846,"SUBURBAN SOCIAL CLUB INC.",3901 S 3RD ST,LOUISVILLE,KY,40214,38.1999967000,-85.7649907000,(502) 368-3161
34372,"BEARNOS LITTLE SICILY",8019 PRESTON HWY,LOUISVILLE,KY,40219,38.1356570000,-85.6848967000,(502) 968-6060
34379,"AANDW ROOT BEER LONG JOHN SILVERS",8315 PRESTON HWY,LOUISVILLE,KY,40219,38.1314740000,-85.6823510000,(502) 969-2206
34380,"DOMINOS PIZZA #1427",8404 PRESTON HWY,LOUISVILLE,KY,40219,38.1304481000,-85.6827285000,(502) 969-5291
34381,"MOBY DICK",6332 BARDSTOWN RD,LOUISVILLE,KY,40218,38.1547924000,-85.5896224000,(502) 239-4827
34393,"TWO LANE LIQUOR AND BAR",9702 BARDSTOWN RD,LOUISVILLE,KY,40291,38.1004678000,-85.5657196000,(502) 239-1018
34396,"HUNTING CREEK COUNTRY CLUB",6807 FOXCRAFT RD,PROSPECT,KY,40059,.0000000000,.0000000000,(502) 228-1106
34526,"PLEHNS BAKERY",3940 SHELBYVILLE ROAD,LOUISVILLE,KY,40207,38.2525654000,-85.6532509000,(502) 895-8223
34855,"SHENANIGANS",1611 NORRIS PL,LOUISVILLE,KY,40205,38.2271506000,-85.7084512000,(502) 454-3919
34857,"SHAWNEE GOLF COURSE",460 NORTHWESTERN PKWY,LOUISVILLE,KY,40212,38.2714047000,-85.8191095000,(502) 775-9384
34866,"CRAVINGS",101 S 5TH ST,LOUISVILLE,KY,40202,38.2561430000,-85.7578730000,(502) 584-6846
34872,"GOLDEN WALL",3111 FERN VALLEY RD,LOUISVILLE,KY,40213,38.1573192000,-85.7060191000,(502) 968-9717
34173,"SKATE WORLD PRESTON",6310 PRESTON HWY,LOUISVILLE,KY,40219,38.1595860000,-85.7006460000,(502) 969-6000
34175,"EL NOPAL",4214 OUTER LOOP,LOUISVILLE,KY,40219,38.1380862000,-85.6828543000,(502) 968-2566
34177,"POPEYES",7528 DIXIE HWY,LOUISVILLE,KY,40258,38.1419650000,-85.8409060000,(502) 933-3633
34573,"BROWNSBORO PARK",2960 GOOSE CREEK RD,LOUISVILLE,KY,40222,38.2911190000,-85.5834250000,(502) 425-3446
34575,"SUBWAY",1979 BROWNSBORO RD,LOUISVILLE,KY,40206,38.2599300000,-85.7083579000,(502) 897-6811
34193,"WENDYS #170234",1108 BARDSTOWN RD,LOUISVILLE,KY,40204,38.2381101000,-85.7210050000,(502) 254-7130
34201,"BRISTOL BAR AND GRILLE",1321 BARDSTOWN RD,LOUISVILLE,KY,40204,38.2351560000,-85.7143140000,(502) 456-1702
34398,"LAZER BLAZE",4121 SHELBYVILLE ROAD,LOUISVILLE,KY,40207,38.2523398000,-85.6457837000,(502) 895-3462
34406,"WAFFLE HOUSE #353",4706 PRESTON HWY,LOUISVILLE,KY,40213,38.1793800000,-85.7182280000,(502) 968-7697
34407,"AMERICAN LEGION SHAWNEE POST #193",2800 W. MAIN ST,LOUISVILLE,KY,40212,38.2610548000,-85.7976210000,(502) 776-8596
34412,"COMMUNITY BAPTIST CHURCH SENIOR SEVICES",4909 INDIAN TRAIL,LOUISVILLE,KY,40219,38.1828589000,-85.6690842000,(502) 459-4959
34581,"AUDUBON COUNTRY CLUB",3265 ROBIN RD,LOUISVILLE,KY,40213,38.0735518000,-85.6650043000,(502) 636-1331
34592,"DIZZY WHIZ #1",217 W ST. CATHERINE ST,LOUISVILLE,KY,40203,.0000000000,.0000000000,(502) 583-3828
34875,"VFW POST OKOLONA",4205 LAMBERT RD,LOUISVILLE,KY,40219,38.1354580000,-85.6835040000,(502) 964-7182
34882,"CEDAR RIDGE CAMP AND RETREAT CNT",4010 ROUTT RD,LOUISVILLE,KY,40299,38.0984082000,-85.4802672000,(502) 267-5848
34884,"HURSTBOURNE CLUB SNACKBAR",9000 HURSTBOURNE CLUB LN,LOUISVILLE,KY,40222,38.2396540000,-85.5917740000,(502) 425-0094
34896,"ARBYS #263",3615 BARDSTOWN RD,LOUISVILLE,KY,40218,38.1995521000,-85.6607579000,(502) 459-7458
34897,"FRISCHS BIG BOY #153",1710 LINCOLN AVE,LOUISVILLE,KY,40213,38.1971351000,-85.7072525000,(502) 451-9880
34898,"PESTOS ITALIAN RESTAURANT",566 S 5TH ST,LOUISVILLE,KY,40203,38.2499310000,-85.7593990000,(502) 584-0567
34899,"BOB EVANS #51",9797 BLAIRWOOD RD,LOUISVILLE,KY,40222,38.2262840000,-85.5793370000,(502) 423-0236
34918,"IROQUOIS VFW POST #6182",992 LONGFIELD AVE,LOUISVILLE,KY,40215,38.1983200000,-85.7767750000,(502) 363-9387
34210,"TWIG AND LEAF",2122 BARDSTOWN RD,LOUISVILLE,KY,40205,38.2245870000,-85.6943910000,(502) 451-8944
34211,"LEFT FIELD LOUNGE INC.",2282 BARDSTOWN RD,LOUISVILLE,KY,40205,38.2240532000,-85.6914926000,(502) 690-3750
34213,"PAPA JOHNS #008",2301 BARDSTOWN RD,LOUISVILLE,KY,40205,38.2241900000,-85.6905680000,(502) 458-7555
34216,"SOL AZTECAS",2427 BARDSTOWN RD,LOUISVILLE,KY,40205,38.2238070000,-85.6874617000,(502) 459-7776
34453,"FERN CREEK BALLPARK CONCESSION",8703 FERNDALE RD,LOUISVILLE,KY,40291,38.1554594000,-85.5983820000,(502) 231-1727
34455,"CAPTAIN DS #3615",5232 BARDSTOWN RD,LOUISVILLE,KY,40219,38.1694713000,-85.6066932000,(502) 499-7189
34602,"SENECA GOLF COURSE SNACK BAR",2300 PEE WEE REESE RD,LOUISVILLE,KY,40205,38.2300220000,-85.6733020000,(502) 458-9248
34923,"OLLIES TROLLEY #9",978 S 3RD ST,LOUISVILLE,KY,40203,38.2388700000,-85.7581593000,(502) 583-5214
34933,"MOBY DICK",3802 DIXIE HWY,LOUISVILLE,KY,40216,38.1969590000,-85.8052070000,(502) 447-5448
34222,"BUCKHEAD MOUNTAIN GRILL",3020 BARDSTOWN RD,LOUISVILLE,KY,40205,38.2129657000,-85.6737004000,(502) 456-6680
34225,"STEAK N SHAKE #701",3232 BARDSTOWN RD,LOUISVILLE,KY,40205,38.2085710000,-85.6698390000,(502) 456-2670
34233,"HOLY SMOKES BBQ",7508 PRESTON HWY,LOUISVILLE,KY,40219,38.1431872000,-85.6893825000,(502) 968-5657
34239,"MORRISON SENIOR DINING",10510 LAGRANGE RD,LOUISVILLE,KY,40223,.0000000000,.0000000000,(502) 253-7000
34471,"AERO CLUB",3333 ROGER E SCHUPP ST,LOUISVILLE,KY,40205,38.2252102000,-85.6555645000,(502) 456-9707
35052,"BUCKS",425 W ORMSBY AVE,LOUISVILLE,KY,40203,38.2333600000,-85.7620620000,(502) 637-5284
35054,"OWL CREEK POOL SNACK BAR",12400 N. OSAGE DR.,LOUISVILLE,KY,40223,38.2719552000,-85.5277575000,(502) 245-4157
35056,"OWL CREEK COUNTRY CLUB",12400 N. OSAGE DR.,LOUISVILLE,KY,40223,38.2719552000,-85.5277575000,(502) 245-4157
35058,"FRATERNAL ORDER OF EAGLES #2173",201 OUTER LOOP,LOUISVILLE,KY,40214,38.1267300000,-85.7656499000,(502) 363-3241
35059,"NACHBAR",969 CHARLES ST,LOUISVILLE,KY,40204,38.2301570000,-85.7357170000,(502) 636-3509
35063,"CHEROKEE GOLF COURSE",2501 ALEXANDER RD,LOUISVILLE,KY,40204,38.2393555000,-85.7039174000,(502) 458-1450
35064,"ADAS KITCHEN",510 E CHESTNUT ST,LOUISVILLE,KY,40202,38.2474273000,-85.7450966000,(502) 561-3762
35200,"WENDYS #170283",4312 CANE RUN RD,LOUISVILLE,KY,40216,38.1998671000,-85.8370123000,(502) 447-2294
35203,"INDIS",4419 CANE RUN RD,LOUISVILLE,KY,40216,38.1966910000,-85.8404403000,(502) 448-1108
35204,"DOMINOS PIZZA #1423",2402 BROWNSBORO RD,LOUISVILLE,KY,40206,38.2580010000,-85.7013580000,(502) 896-2488
35205,"MOBY DICK",4421 CANE RUN RD,LOUISVILLE,KY,40216,38.1964697000,-85.8407153000,(502) 447-3341
35207,"PIZZA HUT #013425",2407 BROWNSBORO RD,LOUISVILLE,KY,40206,38.2584328000,-85.7018584000,(502) 895-5222
35211,"PATS STEAK HOUSE",2437 BROWNSBORO RD,LOUISVILLE,KY,40206,38.2589300000,-85.6999210000,(502) 893-2062
35213,"MIKE LINNIGS RESTAURANT",9308 CANE RUN RD,LOUISVILLE,KY,40258,38.1190560000,-85.8974130000,(502) 937-9888
35215,"FAMOUS RECIPE",2925 BROWNSBORO RD,LOUISVILLE,KY,40206,38.2602765000,-85.6871330000,(502) 896-4694
35217,"CRESCENT HILL GOLF COURSE",3110 BROWNSBORO RD,LOUISVILLE,KY,40206,38.2610931000,-85.6842253000,(502) 896-9193
35229,"GREAT AMERICAN COOKIE",4801 OUTER LOOP,LOUISVILLE,KY,40219,38.1406381000,-85.6714077000,(502) 968-6410
35981,"H. D. RUBBIES",6905 SOUTHSIDE DR,LOUISVILLE,KY,40214,38.1569820000,-85.7640310000,(502) 367-0007
35988,"HILL ST. FISH FRY",111 E HILL ST,LOUISVILLE,KY,40208,38.2254600000,-85.7557070000,(502) 636-3474
35197,"WAFFLE HOUSE #221",4150 CANE RUN RD,LOUISVILLE,KY,40216,38.2024318000,-85.8336740000,(502) 447-7203
35180,"CHECKS",1101 E BURNETT AVE,LOUISVILLE,KY,40217,38.2228510000,-85.7386020000,(502) 637-9372
35070,"BODY SHOP",421 W CHESTNUT ST,LOUISVILLE,KY,40202,38.2493100000,-85.7588730000,(502) 589-5621
35079,"JOCKEY CLUB SUITES",700 CENTRAL AVE,LOUISVILLE,KY,40208,38.2018590000,-85.7711110000,(502) 638-3925
35085,"AMERICAN LEGION DIXIE POST 2",2107 CRUMS LN,LOUISVILLE,KY,40216,38.1954840000,-85.8112560000,(502) 447-9058
35086,"HIGHVIEW YOUTH SPORTS",6415 OUTER LOOP,LOUISVILLE,KY,40219,38.1377970000,-85.6394150000,(502) 299-3380
35088,"PIZZA HUT #013427",6800 OUTER LOOP,LOUISVILLE,KY,40228,38.1375360000,-85.6341381000,(502) 238-7615
35095,"BOBBY NICHOLS GOLF COURSE",4301 E PAGES LN,LOUISVILLE,KY,40272,38.1294290000,-85.8301700000,(502) 937-9051
35109,"WHITE CASTLE #11",1922 S 7TH ST,LOUISVILLE,KY,40208,38.2203274000,-85.7770175000,(502) 535-6047
35113,"DAIRY DEL #2",2607 S 7TH ST,LOUISVILLE,KY,40215,38.2139662000,-85.7837961000,(502) 593-9797
35119,"WILD HORSE SALOON",2927 S 7TH ST,LOUISVILLE,KY,40216,38.2083051000,-85.7879040000,(502) 637-9630
35129,"GRAETERS ICE CREAM",140 BRECKENRIDGE LN,LOUISVILLE,KY,40207,38.2511876000,-85.6543486000,(502) 897-1905
35135,"CAPTAIN DS #3311",2960 BRECKENRIDGE LN,LOUISVILLE,KY,40220,38.2190571000,-85.6295477000,(502) 456-4261
35149,"CHOPSTICKS",416 E BROADWAY,LOUISVILLE,KY,40202,38.2450288000,-85.7468424000,(502) 589-9145
35154,"CITY CAFE",505 W BROADWAY,LOUISVILLE,KY,40202,38.2462303000,-85.7603468000,(502) 589-1797
35159,"SUBWAY",216 W BROADWAY,LOUISVILLE,KY,40203,38.2458982000,-85.7560512000,(502) 584-6568
35163,"SYLS",2403 W BROADWAY,LOUISVILLE,KY,40211,38.2496300000,-85.7917330000,(502) 776-9105
35165,"KFC Y052-023",1911 W BROADWAY,LOUISVILLE,KY,40203,38.2494086000,-85.7838031000,(502) 778-7837
35171,"MCDONALDS #4620",1212 W BROADWAY,LOUISVILLE,KY,40203,38.2471630000,-85.7722409000,(502) 584-7046
35172,"STANDARD CC POOL SNACK BAR",8208 STANDARD CLUB LN,LOUISVILLE,KY,40241,38.2925000000,-85.5968630000,(502) 425-2857
35173,"INDIS",1033 W BROADWAY,LOUISVILLE,KY,40203,38.2474588000,-85.7696413000,(502) 589-7985
36693,"LORDS KITCHEN",2732 S 5TH ST,LOUISVILLE,KY,40208,38.2093362000,-85.7666789000,(502) 964-3304
36704,"TACO BELL #3871",11206 PRESTON HWY,LOUISVILLE,KY,40229,38.0865380000,-85.6685020000,(502) 968-5561
36894,"PIZZA HUT #013422",5368 DIXIE HWY,LOUISVILLE,KY,40216,38.1564770000,-85.8353280000,(502) 448-8711
36905,"KFC Y052-042",9487 WESTPORT RD,LOUISVILLE,KY,40242,38.2866954000,-85.5758608000,(502) 426-5150
36906,"SHIRLEY MAES CAFE",802 S CLAY ST,LOUISVILLE,KY,40202,38.2414090000,-85.7421040000,(502) 589-5295
36994,"DOMINOS PIZZA #1426",3900 S 7TH ST,LOUISVILLE,KY,40216,38.1945230000,-85.8040924000,(502) 448-6372
36820,"IRISH ROVER CLUB",2319 FRANKFORT AVE,LOUISVILLE,KY,40206,38.2534600000,-85.7022710000,(502) 899-3544
37108,"SKYLINE CHILI #2",1266 BARDSTOWN RD,LOUISVILLE,KY,40204,38.2352760000,-85.7160080000,(502) 473-1234
36333,"LEES FAMOUS RECIPE",5059 POPLAR LEVEL RD,LOUISVILLE,KY,40219,38.1629430000,-85.6780610000,(502) 964-6869
36491,"WHITE CASTLE #15",700 W BROADWAY,LOUISVILLE,KY,40202,38.2460710000,-85.7636410000,(502) 584-1531
36387,"ALL-WOOL-YARD-WIDE DEM. CLUB",1328 HICKORY ST,LOUISVILLE,KY,40217,38.2258601000,-85.7360130000,(502) 637-7719
36391,"AMERICAN TURNERS",3125 UPPER RIVER RD,LOUISVILLE,KY,40207,.0000000000,.0000000000,(502) 895-7501
36392,"CAFE 360 AND MANTRA LOUNGE",1582 BARDSTOWN RD,LOUISVILLE,KY,40205,38.2307080000,-85.7051980000,(502) 454-0180
34135,"VALLEY DAIRY FREEZE INC.",10300 DEERING RD,LOUISVILLE,KY,40272,38.1054230000,-85.8617430000,(502) 937-3429
33630,"WENDYS",5240 BARDSTOWN RD,LOUISVILLE,KY,40291,38.1687830000,-85.6058680000,(502) 491-3720
33644,"CHICKEN KING",639 E BROADWAY,LOUISVILLE,KY,40202,38.2451780000,-85.7419820000,(502) 589-5464
33438,"LILLYS RESTAURANT",1147 BARDSTOWN RD,LOUISVILLE,KY,40204,38.2375442000,-85.7192715000,(502) 451-0377
33441,"LEES FAMOUS RECIPE",9813 OLD 3RD ST RD,LOUISVILLE,KY,40272,38.2526647000,-85.7584557000,(502) 933-3538
33443,"SUBWAY",725 W MAIN ST,LOUISVILLE,KY,40202,38.2574051000,-85.7624191000,(502) 625-3002
33419,"HUNTING CREEK POOL CONCESSION",6807 FOXCRAFT RD,PROSPECT,KY,40059,.0000000000,.0000000000,(502) 228-1106
34001,"WENDYS #21",7601 SHELBYVILLE RD,LOUISVILLE,KY,40222,38.2496460000,-85.6129252000,(502) 412-4044
34003,"HEALING PLACE",1020 W MARKET ST,LOUISVILLE,KY,40202,38.2560010000,-85.7674870000,(502) 584-6606
34009,"UPTOWN CAFE",1624 BARDSTOWN RD,LOUISVILLE,KY,40205,38.2301120000,-85.7040100000,(502) 458-4212
33646,"DOMINOS PIZZA #1432",6803 SOUTHSIDE DR,LOUISVILLE,KY,40214,38.1591949000,-85.7644250000,(502) 366-0331
33648,"PANDA CHINA INC",9543 US HWY 42,PROSPECT,KY,40059,.0000000000,.0000000000,(502) 228-6400
33649,"FISHERY",3624 LEXINGTON RD,LOUISVILLE,KY,40207,38.2513850000,-85.6608820000,(502) 895-1188
33655,"WAGON WHEEL FAST FOODS",1633 W KENTUCKY ST,LOUISVILLE,KY,40210,38.2421000000,-85.7816310000,(502) 583-0962
33657,"HAVANA RUMBA",4115 OECHSLI AVE,LOUISVILLE,KY,40207,38.2543910000,-85.6458280000,(502) 641-3244
34011,"TACO BELL #3376",4643 DIXIE HWY,LOUISVILLE,KY,40216,38.1757992000,-85.8210691000,(502) 448-0023
34030,"FRANCISCAN SHELTER HOUSE",748 S PRESTON ST,LOUISVILLE,KY,40203,38.2432872000,-85.7480448000,(502) 589-0140
33201,"ZAS PIZZA AND PUB",1573 BARDSTOWN RD,LOUISVILLE,KY,40205,38.2310721000,-85.7053567000,(502) 454-4544
33726,"DOMINOS PIZZA #1436",5219 DIXIE HWY,LOUISVILLE,KY,40216,38.1624860000,-85.8304950000,(502) 449-3000
33733,"SUBWAY",1259 HURSTBOURNE LN,LOUISVILLE,KY,40223,.0000000000,.0000000000,(502) 426-2383
33742,"DOMINOS PIZZA #1435",7924 FEGENBUSH LN,LOUISVILLE,KY,40228,38.1385539000,-85.6156856000,
33761,"WRIGHT PLACE",501 N 33RD ST,LOUISVILLE,KY,40212,38.2731020000,-85.8005290000,(502) 778-8487
33783,"FRAZIERS BALL PARK CONC.",2213 BRADFORD DR,LOUISVILLE,KY,40218,38.1961166000,-85.6531875000,(502) 425-7290
33659,"HOMEMADE ICE CREAM",2525 BARDSTOWN RD,LOUISVILLE,KY,40205,38.2225300000,-85.6830970000,(502) 459-8184
33665,"WENDYS",4259 OUTER LOOP,LOUISVILLE,KY,40219,38.1385727000,-85.6809225000,(502) 964-0707
34038,"SAINTS PIZZA AND PUB",131 BRECKENRIDGE LN,LOUISVILLE,KY,40207,38.2520410000,-85.6542210000,(502) 891-8883
34041,"MARY QUEEN OF PEACE BALL FIELD CONCESSION",4005 DIXIE HWY,LOUISVILLE,KY,40216,38.1914896000,-85.8082738000,(502) 448-6832
33212,"R PLACE PUB",9603 WHIPPS MILL RD,LOUISVILLE,KY,40222,38.2682985000,-85.5789751000,(502) 425-8516
33228,"OHIO VALLEY RACEWAY",632 KATHERINE STATION RD,LOUISVILLE,KY,40177,38.0029393000,-85.9339781000,(502) 922-4152
33239,"DOMINOS PIZZA #1429",11517 SHELBYVILLE RD,LOUISVILLE,KY,40223,38.2457706000,-85.5427064000,(502) 245-1511
33244,"ELKS LOUISVILLE LODGE #8",2824 KLONDIKE LN,LOUISVILLE,KY,40218,38.2007280000,-85.6406210000,(502) 499-8335
33245,"CHINA INN",1925 S 4TH ST,LOUISVILLE,KY,40202,38.2198980000,-85.7629550000,(502) 636-2020
33694,"MORE SHENANIGANS IRISH",4521 BARDSTOWN RD,LOUISVILLE,KY,40218,38.1821077000,-85.6279414000,(502) 493-3585
33784,"TACO BELL #2412",4910 SHELBYVILLE RD,LOUISVILLE,KY,40207,38.2502972000,-85.6251230000,(502) 893-6084
33789,"STEAK N SHAKE #708",4913 DIXIE HWY,LOUISVILLE,KY,40216,38.1692232000,-85.8273644000,(502) 448-4400
33814,"UNIVERSITY DINING HALL",2001 NEWBURG RD,LOUISVILLE,KY,40205,38.2207340000,-85.7041630000,(502) 272-8325
33823,"MCDONALDS",2720 W BROADWAY,LOUISVILLE,KY,40211,38.2494647000,-85.7982183000,(502) 778-7110
33824,"TACO BELL #2477",110 E BROADWAY,LOUISVILLE,KY,40203,38.2452320000,-85.7527150000,(502) 581-9270
33826,"211 CLOVER LANE",211 CLOVER LN,LOUISVILLE,KY,40207,38.2564530000,-85.6501940000,(502) 896-9570
34068,"ST. VINCENT DEPAUL CENTER",1034 S JACKSON ST,LOUISVILLE,KY,40203,38.2367290000,-85.7470780000,(502) 584-2480
34073,"BRISTOL BAR AND GRILLE",300 N HURSTBOURNE PKWY,LOUISVILLE,KY,40222,.0000000000,.0000000000,(502) 426-0627
34092,"CUMBERLAND BREWS",1576 BARDSTOWN RD,LOUISVILLE,KY,40205,38.2309305000,-85.7054514000,(502) 458-8727
34097,"MCDONALDS #7940",3350 PRESTON HWY,LOUISVILLE,KY,40213,38.1978323000,-85.7321216000,(502) 368-7940
33256,"PAVILION CAFE",315 E BROADWAY,LOUISVILLE,KY,40202,38.2481361000,-85.7493608000,(502) 629-2000
33257,"ALL SPICE CAFE",200 E CHESTNUT ST,LOUISVILLE,KY,40202,38.2480567000,-85.7512535000,(502) 589-8161
33262,"NORTON ST MATTHEWS HOSPITAL",4001 DUTCHMANS LN,LOUISVILLE,KY,40207,38.2353293000,-85.6327272000,(502) 893-1131
33264,"BAKERY",3100 BARDSTOWN RD,LOUISVILLE,KY,40205,38.2121319000,-85.6724799000,(502) 451-0815
33267,"VFW POST 5421 MILLCREEK",7111 LOWER HUNTERS TRACE,LOUISVILLE,KY,40258,38.1744580000,-85.8787710000,(502) 447-9017
33830,"MANUAL STADIUM HOME CONCESSON",1230 E BURNETT AVE,LOUISVILLE,KY,40217,38.2201711000,-85.7363536000,(502) 634-8409
33854,"BROWN HOTEL  MAIN KITCHEN",335 W BROADWAY,LOUISVILLE,KY,40202,38.2464790000,-85.7579420000,(502) 583-1234
33858,"TACO BELL PIZZA HUT EXPRESS #2511",1069 BARDSTOWN RD,LOUISVILLE,KY,40204,38.2392139000,-85.7217010000,(502) 452-1450
33164,"WOODHAVEN COUNTRY CLUB",7200 WOODHAVEN RD,LOUISVILLE,KY,40291,38.1734064000,-85.6244829000,(502) 491-7112
33276,"FAZOLIS",6011 PRESTON HIGHWAY,LOUISVILLE,KY,40213,38.1643780000,-85.7011720000,(502) 969-4532
33287,"LEVY RESTURANTS  JOCKEY CLUB DELI",700 CENTRAL AVE,LOUISVILLE,KY,40208,38.2018590000,-85.7711110000,(502) 636-3351
33291,"FOOD COURT",700 CENTRAL AVE,LOUISVILLE,KY,40208,38.2018590000,-85.7711110000,(502) 638-3925
33292,"PADDOCK GRILL",700 CENTRAL AVE,LOUISVILLE,KY,40208,38.2018590000,-85.7711110000,(502) 638-3925
33605,"LOS AZTECAS",1107 HERR LN,LOUISVILLE,KY,40222,38.2663095000,-85.6117586000,(502) 426-3994
33612,"WENDYS",9489 WESTPORT RD,LOUISVILLE,KY,40222,38.2867783000,-85.5755015000,(502) 423-8503
33863,"BACK DOOR",1250 BARDSTOWN RD,LOUISVILLE,KY,40204,38.2347920000,-85.7177270000,(502) 451-0659
33158,"FISH HOUSE",1310 WINTER AVENUE,LOUISVILLE,KY,40204,38.2357940000,-85.7270290000,(502) 568-2993
33501,"TWINBROOK HOTEL APARTMENT",3525 EPHRAIM MCDOWELL RD,LOUISVILLE,KY,40205,38.2234250000,-85.6524500000,(502) 452-6330
33295,"LEVY RESTAURANTS MAIN KITCHEN",700 CENTRAL AVE,LOUISVILLE,KY,40208,38.2018590000,-85.7711110000,(502) 638-3925
33297,"LING LING",10476 SHELBYVILLE RD,LOUISVILLE,KY,40223,38.2453620000,-85.5632783000,(502) 245-2100
33906,"VINCENZOS",150 S 5TH ST,LOUISVILLE,KY,40201,38.2561190000,-85.7582930000,(502) 580-1350
33913,"GREAT WOK",2502 S PRESTON ST,LOUISVILLE,KY,40217,.0000000000,.0000000000,(502) 634-1918
33917,"ARBYS #1400",4948 U.S. HIGHWAY 42,LOUISVILLE,KY,40222,38.4452188000,-85.4553660000,(502) 423-0136
33920,"BROWN HOTEL  J. GRAHAM CAFE",335 W BROADWAY,LOUISVILLE,KY,40202,38.2464790000,-85.7579420000,(502) 583-1234
33054,"PENDENNIS CLUB",218 W MUHAMMAD ALI BLVD,LOUISVILLE,KY,40202,38.2505610000,-85.7550130000,(502) 584-4311
33055,"STOOGES",7123 GRADE LN,LOUISVILLE,KY,40213,38.1462523000,-85.7373088000,(502) 363-9803
33062,"GREENWOOD BINGO",4529 GREENWOOD RD,LOUISVILLE,KY,40258,38.1444370000,-85.8406790000,(502) 933-1295
33063,"GREYHOUND LINES INC FOOD SERVICE",720 W MUHAMMAD ALI BLVD,LOUISVILLE,KY,40203,38.2516064000,-85.7634209000,(502) 587-0319
33317,"LYNDON ELKS LODGE #2056",904 ORMSBY LANE,LOUISVILLE,KY,40242,38.2587542000,-85.5924115000,(502) 426-2069
33513,"LITTLE CAESARS",6714 OUTER LOOP,LOUISVILLE,KY,40228,38.1372636000,-85.6355328000,(502) 966-3111
33518,"BIG SPRING  CONCESSION",5901 DUTCHMANS LN,LOUISVILLE,KY,40205,38.2312090000,-85.6502840000,(502) 459-2622
33519,"DAIRY DELIGHT",8691 PRESTON HIGHWAY,LOUISVILLE,KY,40219,38.1261729000,-85.6799573000,(502) 964-1345
33070,"CAPTAINS QUARTERS",5700 CAPTAINS QUARTERS RD,HARRODS CREEK,KY,40027,38.3309039000,-85.6425780000,(502) 228-1651
33088,"GOLDEN NUGGET BAR",2922 HIKES LN,LOUISVILLE,KY,40218,38.2102670000,-85.6414820000,(502) 454-9914
33092,"RETIRED SERVICEMENS CLUB",1700 W HILL ST,LOUISVILLE,KY,40210,38.2277600000,-85.7849270000,(502) 778-2505
33099,"ARBYS #714",1203 HURSTBOURNE LN,LOUISVILLE,KY,40217,.0000000000,.0000000000,(502) 425-6660
33927,"KINDRED HOSPITAL-LOUISVILLE",1313 ST. ANTHONY PL,LOUISVILLE,KY,40204,38.2423770000,-85.7317260000,(502) 627-1740
33938,"GALT EAST BANQUET KITCHEN",140 N 4TH ST,LOUISVILLE,KY,40203,38.2580180000,-85.7567520000,(502) 589-3300
33545,"PIZZA HUT #013420",5366 NEW CUT ROAD,LOUISVILLE,KY,40214,38.1509967000,-85.7767483000,(502) 363-2608
33589,"WENDYS",1201 W BROADWAY,LOUISVILLE,KY,40203,38.2480110000,-85.7719550000,(502) 581-1508
33595,"FRISCHS BIG BOY #201",7401 DIXIE HWY,LOUISVILLE,KY,40258,38.1432559000,-85.8394798000,(502) 995-5800
33953,"WENDYS",4029 POPLAR LEVEL RD,LOUISVILLE,KY,40217,38.2001159000,-85.7084411000,(502) 459-9656
33955,"TACO BELL #3362",8602 DIXIE HWY,LOUISVILLE,KY,40258,38.1281507000,-85.8496159000,(502) 933-1439
33962,"EQUUS CONTINENTAL CUISINE",122 SEARS AVE,LOUISVILLE,KY,40207,38.2540140000,-85.6466278000,(502) 897-9721
33966,"OLD SPAGHETTI FACTORY",235 W. MARKET ST,LOUISVILLE,KY,40202,38.2551793000,-85.7548732000,(502) 581-1070
33113,"IROQUOIS PARK GOLF SNACK BAR",1501 RUNDILL RD,LOUISVILLE,KY,40214,38.1686458000,-85.7858018000,(502) 363-9530
33114,"MCDONALDS",9254 WESTPORT RD,LOUISVILLE,KY,40222,38.2858140000,-85.5784188000,(502) 426-2692
33115,"HAMPTON INN",101 E JEFFERSON ST,LOUISVILLE,KY,40202,38.2536010000,-85.7511520000,(502) 585-2200
33116,"DOMINOS PIZZA #1425",9409 WESTPORT RD,LOUISVILLE,KY,40222,38.2868000000,-85.5766000000,(502) 425-5176
33122,"EL NOPAL",9451 WESTPORT RD,LOUISVILLE,KY,40241,38.2861323000,-85.5762682000,(502) 327-6551
33371,"VFW POST MIDDLETOWN",107 EVERGREEN RD,LOUISVILLE,KY,40243,38.2452090000,-85.5290040000,(502) 245-8773
33374,"AMVETS POST 1",1111 SWAN ST,LOUISVILLE,KY,40204,38.2345585000,-85.7368787000,(502) 637-9492
33398,"AMERICAN LEGION DIXIE POST #1",2107 CRUMS LN,LOUISVILLE,KY,40216,38.1954840000,-85.8112560000,(502) 448-8082
33399,"WICKS PIZZA",975 BAXTER AVE,LOUISVILLE,KY,40204,38.2404550000,-85.7241940000,(502) 458-1828
33403,"BLUE LICK OPTIMIST",4611 MUD LN,LOUISVILLE,KY,40229,38.0879556000,-85.6747847000,(502) 969-3901
33411,"KFC Y052-032",6908 DIXIE HWY,LOUISVILLE,KY,40258,38.1486606000,-85.8376040000,(502) 933-3255
33412,"SUN VALLEY GOLF COURSE",6505 BETHANY LN,LOUISVILLE,KY,40272,38.1007118000,-85.8838863000,(502) 937-9228
33602,"MCDONALDS #6859",7426 OLD 3RD ST RD,LOUISVILLE,KY,40214,38.2526647000,-85.7584557000,(502) 367-1455
37483,"WICKS PIZZA",2927 GOOSE CREEK RD,LOUISVILLE,KY,40241,38.2877320000,-85.5778390000,(502) 327-9425
40824,"ARBYS",1650 KENTUCKY MILLS DR,LOUISVILLE,KY,40299,.0000000000,.0000000000,(502) 267-8130
40912,"EL NOPAL",10500 WATTERSON TRAIL,LOUISVILLE,KY,40299,38.1942161000,-85.5652357000,(502) 266-5956
40990,"PAPA JOHNS PIZZA #7",4673 OUTER LOOP,LOUISVILLE,KY,40219,38.1383984000,-85.6757688000,(502) 966-0404
41070,"BREWSKEES",5507 VALLEY STATION ROAD,LOUISVILLE,KY,40272,38.1076160000,-85.8655910000,(502) 933-0361
41186,"SICHUAN GARDENS",9850 LINN STATION RD,LOUISVILLE,KY,40223,38.2269934000,-85.5748409000,
41292,"OLE HICKORY PIT BAR B Q",6106 OLD SHEPHERDSVILLE ROAD,LOUISVILLE,KY,40228,38.1957697000,-85.6612815000,(502) 968-0585
41222,"KFB CAFE",9201 BUNSEN PKWY,LOUISVILLE,KY,40220,.0000000000,.0000000000,(502) 493-7665
39967,"MCDONALDS #35",6701 DIXIE HWY,LOUISVILLE,KY,40258,38.1525690000,-85.8355790000,(502) 933-4616
40141,"COURTYARD BY MARRIOTT",9608 BLAIRWOOD RD,LOUISVILLE,KY,40222,38.2257706000,-85.5798389000,(502) 429-0006
41555,"CLIFTONS PIZZA COMPANY",2230 FRANKFORT AVE,LOUISVILLE,KY,40205,38.2534161000,-85.7047699000,(502) 893-3730
41556,"SUBWAY #6345",7531 OUTER LOOP,LOUISVILLE,KY,40228,38.1375010000,-85.6200485000,(502) 239-2789
42087,"SHONEYS #1772",6511 SIGNATURE DR,LOUISVILLE,KY,40219,38.1561710000,-85.7146420000,(502) 969-8904
42347,"WIN-PLACE AND SHOW BAR",3425 TAYLOR BLVD,LOUISVILLE,KY,40215,38.1986764000,-85.7824981000,
41766,"GUMBYS GOODIES",1477 S 2ND ST,LOUISVILLE,KY,40208,38.2259094000,-85.7584746000,(502) 635-0240
41769,"PIZZA HUT#013423",12525 SHELBYVILLE ROAD,LOUISVILLE,KY,40243,38.2437541000,-85.5204715000,(502) 245-8929
41569,"DITTOS",1114 BARDSTOWN RD,LOUISVILLE,KY,40205,38.2380299000,-85.7204610000,(502) 581-9129
43625,"PAPA JOHNS PIZZA #16",5363 DIXIE HWY,LOUISVILLE,KY,40216,38.1565330000,-85.8338730000,(502) 448-4700
43628,"SHOGUN JAPANESE RESTAURANT",9026 TAYLORSVILLE RD,LOUISVILLE,KY,40299,38.2149217000,-85.5903493000,(502) 499-5700
43827,"U OF L BELKNAP  UNIVERSITY CLUB",200 E BRANDEIS AVE,LOUISVILLE,KY,40292,38.2200130000,-85.7565460000,(502) 852-6996
43513,"MCDONALDS",11600 BLUEGRASS PKWY,LOUISVILLE,KY,40299,.0000000000,.0000000000,(502) 267-5536
43620,"LOUISVILLE PIZZA COMPANY",3910 RUCKRIEGEL PARKWAY,LOUISVILLE,KY,40299,38.1904050000,-85.5674510000,(502) 267-1188
43368,"HEINE BROTHERS COFFEE",119 CHENOWETH LN,LOUISVILLE,KY,40205,38.2540388000,-85.6563081000,(502) 893-5103
43435,"VOA MIDSTATES",1321 S PRESTON ST,LOUISVILLE,KY,40208,38.2302130000,-85.7501450000,(502) 589-0140
39080,"KFC Y052-051",4812 OUTER LOOP,LOUISVILLE,KY,40219,38.1374688000,-85.6718677000,(502) 966-3968
38833,"CLUB CEDAR",416 S 26TH ST,LOUISVILLE,KY,40212,38.2564890000,-85.7944490000,(502) 772-2081
38442,"JEWISH COMMUNITY CENTER POOL SNACK BAR",3600 DUTCHMANS LN,LOUISVILLE,KY,40205,38.2251280000,-85.6496200000,(502) 459-0660
38244,"PIZZA HUT #013426",2733 W BROADWAY,LOUISVILLE,KY,40211,38.2496859000,-85.7980273000,(502) 778-8000
37723,"QUAIL CHASE SNACK BAR",7000 COOPER CHAPEL RD,LOUISVILLE,KY,40229,38.1100043000,-85.6347527000,(502) 239-2110
37691,"PENDENNIS CLUB BAR",218 W MUHAMMAD ALI BLVD,LOUISVILLE,KY,40202,38.2505610000,-85.7550130000,(502) 584-4311
38607,"SUBWAY #6322",6840 BARDSTOWN RD,LOUISVILLE,KY,40291,38.1485889000,-85.5866166000,(502) 239-7188
38634,"DEJA VU",3421 TAYLOR BLVD,LOUISVILLE,KY,40215,38.1988358000,-85.7824604000,(502) 367-9899
37633,"SUBWAY",6501 OLD SHEPHERDSVILLE RD,LOUISVILLE,KY,40228,.0000000000,.0000000000,(502) 966-8989
37586,"GERMAN AMERICAN CLUB",1840 LINCOLN AVE,LOUISVILLE,KY,40213,38.1993550000,-85.7029310000,(502) 451-3100
46121,"PORCINI",2730 FRANKFORT AVE,LOUISVILLE,KY,40206,38.2544570000,-85.6923890000,(502) 894-8686
46262,"SUBWAY #11140",9901 LAGRANGE RD,LOUISVILLE,KY,40223,38.2715117000,-85.5694093000,(502) 339-9684
46365,"COTTAGE CAFE",11609 MAIN ST,LOUISVILLE,KY,40243,38.2453920000,-85.5407050000,(502) 244-9497
46435,"ST. MATTHEWS LITTLE LEAGUE",220 TEN PIN LN,LOUISVILLE,KY,40207,.0000000000,.0000000000,(502) 895-4525
47419,"LAKE FOREST COUNTRY CLUB",14000 LANDMARK DR,LOUISVILLE,KY,40245,38.2681842000,-85.4857907000,(502) 245-6184
46530,"ST. JOHN PAUL II COMMUNITY CENTER",3521 GOLDSMITH LN,LOUISVILLE,KY,40220,38.2097400000,-85.6512370000,(502) 456-6468
46827,"SUBWAY",7611 PRESTON HWY,LOUISVILLE,KY,40219,38.1409190000,-85.6875080000,(502) 964-4782
46828,"WENDYS",978 BRECKENRIDGE LN,LOUISVILLE,KY,40207,38.2333580000,-85.6404110000,(502) 895-9847
46878,"RAMSIS",1293 BARDSTOWN RD,LOUISVILLE,KY,40204,38.2357730000,-85.7154400000,(502) 451-0700
46733,"JEFFERSON ST. BAPTIST CENTER",733 E JEFFERSON ST,LOUISVILLE,KY,40203,38.2520069000,-85.7388802000,(502) 584-6543
47808,"KFC Y052-049",3400 BARDSTOWN RD,LOUISVILLE,KY,40218,38.2058440000,-85.6672870000,(502) 459-5914
47890,"J-TOWN EAGLES",3501 COLLEGE DR,LOUISVILLE,KY,40299,38.1935013000,-85.5679371000,(502) 267-9982
48613,"EL MUNDO",2345 FRANKFORT AVE,LOUISVILLE,KY,40206,38.2536420000,-85.7013587000,(502) 899-9930
48736,"KOREANA RESTAURANT II",5009 PRESTON HWY,LOUISVILLE,KY,40213,38.1752604000,-85.7133646000,(502) 966-2900
48148,"BAYMONT INN AND SUITES",9400 BLAIRWOOD RD,LOUISVILLE,KY,40222,38.2261197000,-85.5809895000,(502) 339-1900
48150,"COURTYARD CAFE BY MASTERSONS",680 S 4TH ST,LOUISVILLE,KY,40202,38.2466230000,-85.7585910000,(502) 596-7837
48362,"FRISCHS BIG BOY #119",6510 SIGNATURE DR,LOUISVILLE,KY,40213,38.1555359000,-85.7156198000,
48068,"PAPA JOHNS PIZZA #4",1961 BROWNSBORO RD,LOUISVILLE,KY,40206,38.2601700000,-85.7094190000,(502) 895-5595
48491,"LONNIES BEST TASTE OF CHICAGO",121 ST. MATTHEWS AVENUE,LOUISVILLE,KY,40207,38.2537000000,-85.6522000000,(502) 895-2380
47951,"VIETNAM KITCHEN",5339 MITSCHER AVE,LOUISVILLE,KY,40214,38.1711040000,-85.7706450000,(502) 363-5154
45368,"BOOTLEG BARBEQUE",9704 BARDSTOWN RD,LOUISVILLE,KY,40291,38.1004095000,-85.5657258000,(502) 239-2722
45373,"SUBWAY #10519",2218 HIKES LN,LOUISVILLE,KY,40218,38.1997900000,-85.6579120000,(502) 459-0559
45404,"PAPA JOHNS",5709 BARDSTOWN RD,LOUISVILLE,KY,40291,38.1629705000,-85.5958892000,
44802,"BELLE OF LOUISVILLE",401 W RIVER RD,LOUISVILLE,KY,40202,38.2588835000,-85.7523527000,(502) 625-3410
45260,"ZS OYSTER BAR AND STEAKHOUSE",101 WHITTINGTON PKWY,LOUISVILLE,KY,40222,.0000000000,.0000000000,(502) 429-8000
45222,"VINT",2309 FRANKFORT AVE,LOUISVILLE,KY,40206,38.2535960000,-85.7031060000,(502) 894-8060
45074,"UPS CAFETERIA",1400 N HURSTBOURNE PKWY,LOUISVILLE,KY,40223,.0000000000,.0000000000,(502) 329-6965
44200,"LYNNVIEW LIQUORS",1239 GILMORE LN,LOUISVILLE,KY,40213,38.1771950000,-85.7093680000,(502) 964-4179
44224,"CHINESE EXPRESS",3228 CRUMS LN,LOUISVILLE,KY,40216,38.1982094000,-85.8350047000,(502) 448-1360
44344,"SUB STATION II",3101 FERN VALLEY RD,LOUISVILLE,KY,40213,38.1573110000,-85.7076670000,(502) 964-1075
44350,"PASS TIME FISH HOUSE AND TAVERN",10801 LOCUST DR,LOUISVILLE,KY,40299,.0000000000,.0000000000,(502) 267-4688
44083,"CHILIS BAR AND GRILL",421 S HURSTBOURNE PKWY,LOUISVILLE,KY,40222,.0000000000,.0000000000,(502) 425-6800
44115,"BAMBA",1237 BARDSTOWN RD,LOUISVILLE,KY,40204,38.2369490000,-85.7175560000,(502) 451-1418
44198,"STEVENS AND STEVENS FOOD SHOP",1114 BARDSTOWN RD,LOUISVILLE,KY,40204,38.2380299000,-85.7204610000,(502) 584-3354
49174,"GRAPE LEAF",2217 FRANKFORT AVE,LOUISVILLE,KY,40206,38.2536522000,-85.7056803000,(502) 897-1774
49247,"OHIO VALLEY VOLLEYBALL CENTER",1820 TAYLOR AVE,LOUISVILLE,KY,40213,38.2002420000,-85.7035220000,(502) 473-1200
51213,"AMERICAN LEGION G.I. JOE POST 244",3408 COLLEGE DR,LOUISVILLE,KY,40299,38.1941980000,-85.5691000000,(502) 266-9108
51009,"BARRELL OF FUN ICE CREAM",9421 SMYRNA ROAD,LOUISVILLE,KY,40229,38.1108000000,-85.6447000000,(502) 964-0681
51013,"OSHEAS",956 BAXTER AVE,LOUISVILLE,KY,40205,38.2407420000,-85.7247850000,(502) 589-7373
51020,"SUNSHINE BINGO CENTER",5712 OUTER LOOP,LOUISVILLE,KY,40219,38.1371384000,-85.6553110000,(502) 969-3699
51467,"SUBWAY",129 W MARKET ST,LOUISVILLE,KY,40202,38.2549603000,-85.7528806000,(502) 583-2121
51469,"BEARNOS LITTLE SICILY",10117 TAYLORSVILLE RD,LOUISVILLE,KY,40299,38.1978880000,-85.5688670000,(502) 267-2549
51482,"BURGER KING #541",6450 OUTER LOOP,LOUISVILLE,KY,40228,38.1372800000,-85.6386180000,(502) 964-9459
52126,"HYATT PLACE",701 S. HURSTBOURNE LANE,LOUISVILLE,KY,40222,38.2366000000,-85.5760000000,(502) 426-0119
52141,"SHADY LANE CAFE",4806 BROWNSBORO RD,LOUISVILLE,KY,40207,38.2785591000,-85.6378107000,(502) 893-5118
52300,"SHALIMAR RESTAURANT",1850 S HURSTBOURNE PKWY,LOUISVILLE,KY,40220,.0000000000,.0000000000,(502) 493-8899
52331,"WAFFLE HOUSE #1001",12923 SHELBYVILLE RD,LOUISVILLE,KY,40243,38.2431973000,-85.5133924000,(502) 254-3005
52124,"FRANKFORT AVENUE BEER DEPOT",3204 FRANKFORT AVE,LOUISVILLE,KY,40206,38.2540890000,-85.6748730000,(502) 895-6994
51670,"THAI CAFE",2226 HOLIDAY MANOR CENTER,LOUISVILLE,KY,40222,38.2826850000,-85.6315550000,(502) 425-4815
51759,"HIGHLAND PARK SOCIAL CLUB",4100 PINECROFT DR,LOUISVILLE,KY,40219,38.1334480000,-85.6861880000,(502) 966-9279
51761,"HEINE BROTHERS COFFEE",1295 BARDSTOWN RD,LOUISVILLE,KY,40204,38.2356029000,-85.7155601000,(502) 456-5108
51860,"1ST WOK CHINESE RESTAURANT",3967 S 7TH ST,LOUISVILLE,KY,40216,.0000000000,.0000000000,(502) 448-0588
51928,"CHARLES MCDOWELL REHABILITATION CTR FOR THE BLIND",8412 WESTPORT ROAD,LOUISVILLE,KY,40242,38.2774000000,-85.5965000000,(502) 327-6010
51980,"AUNTIE ANNES",7900 SHELBYVILLE RD,LOUISVILLE,KY,40222,38.2469290000,-85.6081470000,(502) 339-1750
52375,"PAPA JOHNS PIZZA #12",6902 SOUTHSIDE DRIVE,LOUISVILLE,KY,40214,38.1577000000,-85.7650000000,(502) 361-2120
52417,"STEVIE RAYS BLUES CLUB",230 E MAIN ST,LOUISVILLE,KY,40202,38.2553600000,-85.7487410000,(502) 582-9945
52118,"DAYS EXPRESSO AND COFFEE BAR",1420 BARDSTOWN RD,LOUISVILLE,KY,40204,38.2328609000,-85.7110782000,(502) 456-1170
53576,"FAZOLIS",10307 DIXIE HWY,LOUISVILLE,KY,40272,38.1050300000,-85.8678130000,(502) 933-5212
53396,"HAMPTON INN",800 PHILLIPS LN,LOUISVILLE,KY,40209,38.1911711000,-85.7432475000,(502) 366-8100
53397,"MCDONALDS",287 N HUBBARDS LN,LOUISVILLE,KY,40207,38.2585550000,-85.6395030000,(502) 897-0963
52528,"GALT BANQUET KITCHEN",140 N 4TH ST,LOUISVILLE,KY,40202,38.2580180000,-85.7567520000,(502) 589-5200
52797,"RAFFERTYS RESTAURANT AND BAR",988 BRECKENRIDGE LN,LOUISVILLE,KY,40207,38.2316310000,-85.6400230000,(502) 897-3900
53131,"PAPA JOHNS PIZZA #17",3948 TAYLORSVILLE ROAD,LOUISVILLE,KY,40220,38.2193000000,-85.6273000000,(502) 458-7272
52942,"BURGER KING #542",3701 DIANN MARIE RD,LOUISVILLE,KY,40241,38.2997510000,-85.5424800000,(502) 339-0707
52594,"OUTBACK STEAKHOUSE",6520 SIGNATURE DRIVE,LOUISVILLE,KY,40213,38.1541840000,-85.7148400000,(502) 964-8383
52869,"JOE MUGGS",994 BRECKENRIDGE LN,LOUISVILLE,KY,40207,38.2312000000,-85.6423000000,(502) 894-8606
52892,"HOLE IN THE WALL",5415 INDIAN OAKS CIRCLE,LOUISVILLE,KY,40213,38.1703000000,-85.6870000000,(502) 964-6000
50199,"DISMAS CHARITIES",1501 LYTLE ST,LOUISVILLE,KY,40203,38.2612956000,-85.7742981000,(502) 584-3733
50277,"PAPA JOHNS PIZZA #21",3985 S 7TH ST,LOUISVILLE,KY,40216,38.1967834000,-85.7990459000,(502) 447-6900
49968,"GASTHAUS",4812 BROWNSBORO RD,LOUISVILLE,KY,40207,.0000000000,.0000000000,(502) 899-7177
50068,"BOURBONS BISTRO",2255 FRANKFORT AVE,LOUISVILLE,KY,40206,38.2535979000,-85.7039070000,(502) 894-8838
50073,"HOOPS GRILL AND SPORTS",6733 STRAWBERRY LN,LOUISVILLE,KY,40214,38.1581291000,-85.7644429000,(502) 363-5352
50120,"DOMINOS PIZZA #1464",10314 WATTERSON TRAIL,LOUISVILLE,KY,40299,38.1923000000,-85.5680000000,(502) 267-3030
50121,"WENDYS",12925 SHELBYVILLE RD,LOUISVILLE,KY,40243,38.2432760000,-85.5126090000,(502) 245-5181
50192,"BUCA DI BEPPO",2051 S HURSTBOURNE LN,LOUISVILLE,KY,40220,.0000000000,.0000000000,(502) 493-2426
49849,"WAFFLE HOUSE #932",1620 KENTUCKY MILLS DR,LOUISVILLE,KY,40299,38.2188830000,-85.5396500000,(502) 266-5274
49678,"TKS PUB AND GRILL",5442 DEL MARIA WAY,LOUISVILLE,KY,40291,38.0328962000,-85.6208588000,(502) 499-0393
49711,"STEAK N SHAKE #702",4545 OUTER LOOP,LOUISVILLE,KY,40219,38.1384345000,-85.6783102000,(502) 966-3109
49416,"SUBWAY",539 W MARKET ST,LOUISVILLE,KY,40202,38.2556627000,-85.7599268000,(502) 587-7979
49463,"HEINE BROTHERS COFFEE",2714 FRANKFORT AVE,LOUISVILLE,KY,40206,38.2545108000,-85.6933867000,(502) 899-5551
49592,"CHUCK E CHEESE #111",2030 S HURSTBOURNE PKWY,LOUISVILLE,KY,40220,.0000000000,.0000000000,(502) 493-0261
55139,"HIDEAWAY SALOON",1607 BARDSTOWN RD,LOUISVILLE,KY,40205,38.2304885000,-85.7040892000,(502) 744-9274
55172,"PAPA JOHNS PIZZA 25",4123 SHELBYVILLE ROAD,LOUISVILLE,KY,40207,38.2524000000,-85.6456000000,(502) 896-9999
53649,"FERN AND MOODYS",3903 BARDSTOWN RD,LOUISVILLE,KY,40218,38.1956446000,-85.6535253000,(502) 458-9415
53827,"PAPA JOHNS PIZZA #50",221 S HURSTBOURNE LN,LOUISVILLE,KY,40223,.0000000000,.0000000000,(502) 339-9990
54796,"CHEDDAR BOX CAFE",12121 SHELBYVILLE ROAD,LOUISVILLE,KY,40243,38.2480000000,-85.5283000000,(502) 245-2622
54797,"ST. PAULS UNITED METHODIST CHURCH",2000 DOUGLASS BLVD,LOUISVILLE,KY,40205,38.2245765000,-85.6939002000,(502) 459-1595
55272,"BURGER KING #544",1820 NEW BLANKENBAKER LN,LOUISVILLE,KY,40299,38.2154000000,-85.5396000000,(800) 266-0190
55705,"TEXAS ROADHOUSE",3322 OUTER LOOP,LOUISVILLE,KY,40219,38.1357000000,-85.7009000000,(502) 462-7600
55445,"TACO BELL",3950 TAYLORSVILLE RD,LOUISVILLE,KY,40220,38.2196417000,-85.6271003000,(502) 452-2355
56317,"RED SUN",3437 BRECKENRIDGE LN,LOUISVILLE,KY,40220,38.1988314000,-85.6244986000,(502) 249-9778
56421,"CHOPSTICK HOUSE",2112 W BROADWAY,LOUISVILLE,KY,40211,38.2489070000,-85.7873302000,(502) 772-3231
56472,"WAFFLE HOUSE# 1111",9800 BLAIRWOOD RD,LOUISVILLE,KY,40220,38.2251330000,-85.5795770000,(502) 423-0967
56535,"MOBY DICK",11210 PRESTON HIGHWAY,LOUISVILLE,KY,40229,38.0866000000,-85.6692000000,(502) 968-5802
56073,"QUIZNOS",223 S 5TH ST,LOUISVILLE,KY,40202,38.2547695000,-85.7584456000,(502) 589-5520
55811,"ZEN GARDEN",2240 FRANKFORT AVE,LOUISVILLE,KY,40206,38.2532130000,-85.7042363000,(502) 895-9114
55889,"PAPA JOHNS #22",5010 PRESTON HWY,LOUISVILLE,KY,40219,38.1746374000,-85.7127720000,(502) 968-9999
55956,"RENAISSANCE FUN PARK",201 PARK PLACE DR,LOUISVILLE,KY,40223,38.2406480000,-85.5121350000,(502) 253-9700
57616,"BIG MOMMAS SOUL KITCHEN",4532 W. BROADWAY,LOUISVILLE,KY,40211,38.2503000000,-85.8287000000,(502) 772-9580
57727,"WINNERS CIRCLE SUITE KITCHEN",700 CENTRAL AVE,LOUISVILLE,KY,40208,38.2018590000,-85.7711110000,(502) 636-3351
56579,"BREADWORKS",2204 DUNDEE RD,LOUISVILLE,KY,40205,38.2243183000,-85.6940544000,(502) 452-1510
56580,"VOLUNTEERS OF AMERICA",1436 S SHELBY ST,LOUISVILLE,KY,40217,38.2271310000,-85.7416760000,(502) 636-0816
56766,"TRIXIES KNOCKOUT SALOON AND GRILL",6112 PRESTON HWY,LOUISVILLE,KY,40219,38.1618289000,-85.7001150000,(502) 969-6199
56897,"MCDONALDS",6400 GREENWOOD RD,LOUISVILLE,KY,40258,38.1440890000,-85.8714680000,(502) 937-2880
57275,"PIZZA HUT #013428",9160 TAYLORSVILLE ROAD,LOUISVILLE,KY,40299,38.2126000000,-85.5885000000,(502) 493-8600
57286,"BURGER KING #546",5611 NEW CUT ROAD,LOUISVILLE,KY,40214,38.1419000000,-85.7738000000,(502) 361-7171
57328,"DOMINOS PIZZA #1421",2520 BARDSTOWN RD,LOUISVILLE,KY,40205,38.2223080000,-85.6840820000,(502) 458-0030
57205,"RODEO",5204 ELZIE RD,LOUISVILLE,KY,40258,38.1262178000,-85.8518696000,(502) 937-8722
56899,"WENDYS #310",193 OUTER LOOP,LOUISVILLE,KY,40214,38.1263528000,-85.7743273000,(502) 375-0100
57012,"MOBY DICK",8702 NATIONAL TURNPIKE,FAIRDALE,KY,40118,38.1230220000,-85.7494130000,(502) 363-9800
57089,"PTS SHOW CLUB",227 E MARKET ST,LOUISVILLE,KY,40202,38.2547910000,-85.7490770000,(502) 587-7878
54791,"DIVINITY CATERING LTD",2052 FRANKFORT AVE,LOUISVILLE,KY,40206,38.2542215000,-85.7086407000,(502) 893-7069
54253,"BARNES AND NOBLE BOOKSELLERS",801 S. HURSTBOURNE PARKWAY,LOUISVILLE,KY,40222,38.2360000000,-85.5757000000,(502) 426-0255
54481,"TEXAS ROADHOUSE",4406 DIXIE HWY,LOUISVILLE,KY,40216,38.1836190000,-85.8161640000,(502) 448-0705
53960,"STEAK N SHAKE #703",2717 S HURSTBOURNE PKWY,LOUISVILLE,KY,40220,.0000000000,.0000000000,(502) 491-3394
54075,"OCHARLEYS",4404 DIXIE HWY,LOUISVILLE,KY,40216,38.1834580000,-85.8152180000,(502) 447-9203
54076,"MCDONALDS",8600 CITADEL WAY,LOUISVILLE,KY,40220,38.2115910000,-85.5976994000,(502) 491-8852
54170,"CHUNG KING PALACE",110 E MARKET ST,LOUISVILLE,KY,40202,38.2542500000,-85.7513120000,(502) 584-8880
59007,"IROQUOIS PIZZA INC.",6614 MANSLICK RD,LOUISVILLE,KY,40214,38.1651920000,-85.7978670000,(502) 363-3211
59008,"TUMBLEWEED",3602 BARDSTOWN RD,LOUISVILLE,KY,40218,38.2002669000,-85.6627379000,(502) 454-2727
59047,"WENDYS",5124 DIXIE HWY,LOUISVILLE,KY,40216,38.1664700000,-85.8300700000,(502) 498-8203
59048,"MR. GATTIS",4200 OUTER LOOP,LOUISVILLE,KY,40219,38.1382401000,-85.6830458000,(502) 964-0933
59049,"BREADWORKS",3628 BROWNSBORO RD,LOUISVILLE,KY,40206,38.2644000000,-85.6692000000,(502) 893-3200
58709,"WENDYS",1630 KENTUCKY MILLS DR,LOUISVILLE,KY,40299,38.2184860000,-85.5396570000,(502) 297-9932
58847,"PIZZA HUT #013429",9705 DIXIE HWY,LOUISVILLE,KY,40272,38.1148110000,-85.8604280000,(502) 933-1111
58849,"CINEMARK SPRINGHURST #1",4400 TOWNE CENTER DR,LOUISVILLE,KY,40241,38.3017110000,-85.5580310000,(502) 326-9572
58850,"CINEMARK SPRINGHURST #2",4400 TOWNE CENTER DR,LOUISVILLE,KY,40241,38.3017110000,-85.5580310000,(502) 326-9572
58851,"CINEMARK SPRINGHURST #3",4400 TOWNE CENTER DR,LOUISVILLE,KY,40241,38.3017110000,-85.5580310000,(502) 326-9572
58852,"CINEMARK SPRINGHURST #4",4400 TOWNE CENTER DR,LOUISVILLE,KY,40241,38.3017110000,-85.5580310000,(502) 326-9572
59263,"J ALEXANDERS",102 OXMOOR COURT,LOUISVILLE,KY,40222,38.2484820000,-85.6172780000,(502) 339-2206
59265,"ATRIA ST. MATTHEWS",120 S HUBBARDS LN,LOUISVILLE,KY,40207,38.2501660000,-85.6407300000,(502) 896-1759
58857,"ANNIES CAFE",308 W WOODLAWN AVE,LOUISVILLE,KY,40215,38.1815796000,-85.7671327000,(502) 363-4847
58859,"VALLEY HS CONCESSION",10200 DIXIE HWY,LOUISVILLE,KY,40272,38.1075968000,-85.8668093000,(502) 485-8339
58862,"GALLERY HOUSE BED AND BREAKFAST",1386 S 6TH ST,LOUISVILLE,KY,40208,38.2296640000,-85.7649310000,(502) 635-2550
58881,"MARY QUEEN OF PEACE GYM",4005 DIXIE HWY,LOUISVILLE,KY,40216,38.1914896000,-85.8082738000,(502) 448-6832
59771,"MARYHURST",5227 BARDSTOWN RD,LOUISVILLE,KY,40291,38.1745890000,-85.6050610000,(502) 245-1576
60012,"INDIS",4590 DIXIE HWY,LOUISVILLE,KY,40216,38.1776355000,-85.8197687000,(502) 593-9583
59611,"WACKY WILLYS RESTAURANT",4220 BARDSTOWN RD,LOUISVILLE,KY,40218,38.1851770000,-85.6393430000,(502) 459-4444
59630,"SKYLINE CHILI #4",6801 DIXIE HWY,LOUISVILLE,KY,40258,38.1510580000,-85.8344730000,(502) 937-4020
59457,"TUMBLEWEED",9701 DIXIE HWY,LOUISVILLE,KY,40272,38.1152585000,-85.8604521000,(502) 937-9951
59504,"SANTA FE GRILL",3000 S 3RD ST,LOUISVILLE,KY,40208,38.2061500000,-85.7642210000,(502) 634-3722
59738,"TACO BELL #19726",4304 OUTER LOOP,LOUISVILLE,KY,40219,38.1378830000,-85.6816790000,(502) 966-9102
59739,"OXMOOR LODGE COMMUNITY",8021 CHRISTIAN CT,LOUISVILLE,KY,40222,38.2469260000,-85.6057450000,(502) 425-2402
60208,"BUFFALO WILD WINGS #18",12901 SHELBYVILLE  RD,LOUISVILLE,KY,40243,.0000000000,.0000000000,(502) 254-9464
60210,"SCHLOTZSKYS",10531 FISCHER PARK DR,LOUISVILLE,KY,40241,38.2958810000,-85.5577790000,(502) 425-8417
60707,"WHITE CASTLE #28",7200 CEDAR SPRINGS BLVD,LOUISVILLE,KY,40291,38.1446794000,-85.5853674000,(502) 239-5563
60876,"MOLLY MALONES",933 BAXTER AVE,LOUISVILLE,KY,40204,38.2417284000,-85.7252000000,(502) 473-1222
60878,"RAFFERTYS RESTAURANT AND BAR",3601 SPRINGHURST BLVD,LOUISVILLE,KY,40241,38.2994630000,-85.5594130000,(502) 412-9000
60880,"MAIN EATERY",643 W MAIN ST,LOUISVILLE,KY,40202,38.2572430000,-85.7613430000,(502) 589-3354
60961,"WENDYS",10741 FISCHER PARK DR,LOUISVILLE,KY,40241,38.2971330000,-85.5524120000,(502) 412-7403
60962,"BEARNOS",6101 BARDSTOWN RD,LOUISVILLE,KY,40291,38.1579234000,-85.5908919000,(502) 231-2222
61128,"CARDS STAND #6",2800 S FLOYD ST,LOUISVILLE,KY,40209,38.2055170000,-85.7567210000,(502) 737-5665
61129,"CARDS STAND KY PORK PRODUCERS #18",2800 S FLOYD ST,LOUISVILLE,KY,40209,38.2055170000,-85.7567210000,(502) 737-5665
60449,"PAPA JOHNS PIZZA #9",2336 S FLOYD ST,LOUISVILLE,KY,40208,38.2135609000,-85.7556590000,(502) 266-5200
61091,"STEAK N SHAKE #707",10721 FISCHER PARK DR,LOUISVILLE,KY,40241,38.2969940000,-85.5529590000,(502) 326-3625
60974,"CARDS STAND EHRLERS #17",2800 S FLOYD ST,LOUISVILLE,KY,40209,38.2055170000,-85.7567210000,(502) 454-7565
60975,"CARDS STAND PJ PIZZA #1",2800 S FLOYD ST,LOUISVILLE,KY,40209,38.2055170000,-85.7567210000,(502) 261-7272
60976,"CARDS STAND PJ PIZZA #2",2800 S FLOYD ST,LOUISVILLE,KY,40209,38.2055170000,-85.7567210000,(502) 261-7272
60977,"CARDS STAND PJ PIZZA #3",2800 S FLOYD ST,LOUISVILLE,KY,40209,38.2055170000,-85.7567210000,(502) 261-7272
60978,"CARDS STAND PJ PIZZA #4",2800 S FLOYD ST,LOUISVILLE,KY,40209,38.2055170000,-85.7567210000,(502) 968-7340
60979,"CARDS STAND PJ PIZZA #5",2800 S FLOYD ST,LOUISVILLE,KY,40209,38.2055170000,-85.7567210000,(502) 968-7340
60980,"CARDS STAND PJ PIZZA #6",2800 S FLOYD ST,LOUISVILLE,KY,40209,38.2055170000,-85.7567210000,(502) 261-7272
60981,"CARDS CLUB MAIN CLUB",2800 S FLOYD ST,LOUISVILLE,KY,40209,38.2055170000,-85.7567210000,(502) 634-8444
60982,"CARDS CLUB PJ PIZZA #1",2800 S FLOYD ST,LOUISVILLE,KY,40209,38.2055170000,-85.7567210000,(502) 261-7272
60984,"CARDS CLUB EHRLERS #3",2800 S FLOYD ST,LOUISVILLE,KY,40209,38.2055170000,-85.7567210000,(502) 634-8444
60985,"CARDS STAND #1",2800 S FLOYD ST,LOUISVILLE,KY,40209,38.2055170000,-85.7567210000,(502) 634-8444
60986,"CARDS STAND #03",2800 S FLOYD ST,LOUISVILLE,KY,40209,38.2055170000,-85.7567210000,(502) 634-8444
60988,"CARDS STAND #08",2800 S FLOYD ST,LOUISVILLE,KY,40209,38.2055170000,-85.7567210000,(502) 634-8444
60989,"CARDS STAND #10",2800 S FLOYD ST,LOUISVILLE,KY,40209,38.2055170000,-85.7567210000,(502) 634-8444
60990,"CARDS STAND #11",2800 S FLOYD ST,LOUISVILLE,KY,40209,38.2055170000,-85.7567210000,(502) 634-8444
60991,"CARDS STAND #12",2800 S FLOYD ST,LOUISVILLE,KY,40209,38.2055170000,-85.7567210000,(502) 634-8444
60992,"CARDS STAND #13",2800 S FLOYD ST,LOUISVILLE,KY,40209,38.2055170000,-85.7567210000,(502) 634-8444
60993,"CARDS STAND #15",2800 S FLOYD ST,LOUISVILLE,KY,40209,38.2055170000,-85.7567210000,(502) 634-8444
60994,"CARDS STAND #21",2800 S FLOYD ST,LOUISVILLE,KY,40209,38.2055170000,-85.7567210000,(502) 634-8444
60995,"CARDS STAND #23",2800 S FLOYD ST,LOUISVILLE,KY,40209,38.2055170000,-85.7567210000,(502) 634-8444
61009,"CARDS STAND #04",2800 S FLOYD ST,LOUISVILLE,KY,40209,38.2055170000,-85.7567210000,(502) 634-8444
61010,"CARDS STAND #07",2800 S FLOYD ST,LOUISVILLE,KY,40209,38.2055170000,-85.7567210000,(502) 634-8444
61011,"CARDS STAND #16",2800 S FLOYD ST,LOUISVILLE,KY,40209,38.2055170000,-85.7567210000,(502) 634-8444
61012,"CARDS STAND #20",2800 S FLOYD ST,LOUISVILLE,KY,40209,38.2055170000,-85.7567210000,(502) 634-8444
60382,"BLUE DOG BAKERY AND CAFE",2868 FRANKFORT AVE,LOUISVILLE,KY,40206,38.2545741000,-85.6873403000,(502) 899-9800
57936,"TONY BOOM BOZZ",1448 BARDSTOWN RD,LOUISVILLE,KY,40204,38.2325281000,-85.7103501000,(502) 458-8889
57935,"LAKE FOREST CC MALIBU POOL KITCHEN",14000 LANDMARK DR,LOUISVILLE,KY,40245,38.2681842000,-85.4857907000,(502) 245-0950
57758,"CHINA EXPRESS",4946 POPLAR LEVEL RD,LOUISVILLE,KY,40213,38.1676850000,-85.6825220000,(502) 969-8838
62389,"CAPORAL",1909 BLANKENBAKER PKWY,LOUISVILLE,KY,40299,.0000000000,.0000000000,(502) 266-9605
62392,"BOOMERS CANTEEN",722 W MAIN ST,LOUISVILLE,KY,40202,38.2568849000,-85.7626060000,(502) 585-4356
62468,"LOS AZTECA #4",9207 US HWY 42,PROSPECT,KY,40059,.0000000000,.0000000000,(502) 228-2450
62284,"PENN STATION #5",1933 BLANKENBAKER PKWY,LOUISVILLE,KY,40299,.0000000000,.0000000000,(502) 267-1925
61951,"WENDYS #23",3610 BUECHEL BYPASS,LOUISVILLE,KY,40225,.0000000000,.0000000000,(502) 479-3212
62104,"OKOLONA BASEBALL  BABE RUTH",8620 PRESTON HIGHWAY,LOUISVILLE,KY,40219,38.1261000000,-85.6816000000,(502) 396-6227
62681,"BROWN HOTEL  THE LOBBY BAR",335 W BROADWAY,LOUISVILLE,KY,40203,38.2464790000,-85.7579420000,
62735,"OUTBACK STEAKHOUSE",9498 BROWNSBORO RD,LOUISVILLE,KY,40241,38.3078610000,-85.5741359000,(502) 426-4329
62736,"GERMANTOWN BASEBALL BACK CONCESSION STAND",1537 POPLAR LEVEL ROAD,LOUISVILLE,KY,40217,38.2207000000,-85.7205000000,(502) 635-2282
62737,"PLAINVIEW SWIM AND TENNIS CENTER",10235 TIMBERWOOD CIRCLE,LOUISVILLE,KY,40223,.0000000000,.0000000000,(502) 254-5551
63013,"RUBY TUESDAY #4520",11701 BLUEGRASS PKWY,LOUISVILLE,KY,40299,.0000000000,.0000000000,(502) 267-7100
63014,"STARVING ARTIST CAFE AND DELI",8034 NEW LAGRANGE RD,LOUISVILLE,KY,40222,.0000000000,.0000000000,(502) 412-1599
62588,"BURGER KING #12488",10001 WILL WAY,LOUISVILLE,KY,40291,38.1454530000,-85.5858610000,(502) 239-2870
62593,"ST. THERESE CONCESSIONS",1107 E KENTUCKY ST,LOUISVILLE,KY,40204,38.2355120000,-85.7322540000,(502) 634-3778
62546,"GRAETERS ICE CREAM",9430 BROWNSBORO RD,LOUISVILLE,KY,40241,38.3078052000,-85.5743318000,(502) 327-8486
62575,"WHITE CASTLE #30",2711 FERN VALLEY RD,LOUISVILLE,KY,40213,38.1577990000,-85.7146510000,(502) 926-8438
62821,"UPPER HIGHLANDS SWIM CLUB",2411 PARKDALE AVE,LOUISVILLE,KY,40220,38.2355063000,-85.6212028000,(502) 709-4144
63523,"PIZZA HUT #013430",3601 BUECHEL BYPASS,LOUISVILLE,KY,40218,.0000000000,.0000000000,(502) 499-1411
63546,"WHITE CASTLE #31",5520 NATIONAL TURNPIKE,LOUISVILLE,KY,40220,38.1512000000,-85.7644000000,(502) 361-8414
63089,"HIGHLAND COFFEE COMPANY",1140 BARDSTOWN RD,LOUISVILLE,KY,40204,38.2373691000,-85.7195001000,(502) 451-4545
63091,"MAX ORIENT",4801 OUTER LOOP,LOUISVILLE,KY,40219,38.1406381000,-85.6714077000,(502) 964-4688
63315,"BUFFALO WILD WINGS",6801 DIXIE HWY,LOUISVILLE,KY,40258,38.1510580000,-85.8344730000,(502) 935-1997
63316,"PAPA JOHNS PIZZA 44",10100 TAYLORSVILLE ROAD,LOUISVILLE,KY,40299,38.1982000000,-85.5705000000,(502) 299-7272
63298,"PAPA JOHNS #1450",5000 MUD LN,LOUISVILLE,KY,40229,38.0882040000,-85.6695030000,(502) 964-1664
63624,"SUBWAY #21369",9090 DIXIE HWY,LOUISVILLE,KY,40258,38.1228490000,-85.8549270000,(502) 995-4405
63550,"MCDONALDS",6214 OLD SHEPHERDSVILLE RD,LOUISVILLE,KY,40228,.0000000000,.0000000000,(502) 961-8678
63553,"MCDONALDS",12414 LAGRANGE RD,LOUISVILLE,KY,40241,.0000000000,.0000000000,(502) 241-0930
63216,"PENN STATION",6661 DIXIE HWY,LOUISVILLE,KY,40258,38.1535990000,-85.8350220000,(502) 933-7345
63221,"DAYS INN SUITES",4051 CANE RUN RD,LOUISVILLE,KY,40216,38.2055765000,-85.8292061000,(502) 447-3700
63349,"ATRIA SPRINGDALE",4501 SPRINGDALE RD,LOUISVILLE,KY,40241,38.3115170000,-85.5862680000,(502) 412-0222
61835,"WAGNERS PHARMACY",3113 S 4TH ST,LOUISVILLE,KY,40214,38.2045812000,-85.7655829000,(502) 375-3800
61839,"BURGER KING #587",4620 S HURSTBOURNE PKWY,LOUISVILLE,KY,40299,.0000000000,.0000000000,(502) 493-4545
61832,"WHITE CASTLE #29",4108 OUTER LOOP,LOUISVILLE,KY,40219,38.1380655000,-85.6855618000,(502) 968-3055
61244,"J-TOWN SENIOR CITIZEN CENTER",10631 WATTERSON TRAIL,LOUISVILLE,KY,40299,38.1968779000,-85.5617310000,(502) 267-9112
61687,"FULL SWING INDOOR GOLF",7100 PRESTON HIGHWAY,LOUISVILLE,KY,40219,38.1496000000,-85.6950000000,(502) 969-0404
61484,"HEINE BROS. COFFEE",462 S. 4TH STREET,LOUISVILLE,KY,40202,38.2514000000,-85.7577000000,(502) 561-2041
61486,"TACO BELL #20133",10541 FISCHER PARK DR,LOUISVILLE,KY,40241,38.2962123000,-85.5577531000,(502) 412-9133
61470,"NEW SILVER HEIGHTS BINGO",9206 BLUE LICK RD,LOUISVILLE,KY,40219,38.1153926000,-85.6895037000,(502) 969-7808
61472,"AKIKOS KARAOKE",1123 BARDSTOWN RD,LOUISVILLE,KY,40204,38.2379726000,-85.7199883000,(502) 459-8020
64606,"FUJI JAPANESE STEAKHOUSE",3576 SPRINGHURST BLVD,LOUISVILLE,KY,40241,38.2983000000,-85.5617000000,(502) 339-1978
64648,"HOLIDAY INN EXPRESS HOTEL",1520 ALLIANT AVE,LOUISVILLE,KY,40299,38.2214079000,-85.5369230000,(502) 240-0035
64337,"MAKI OF JAPAN",5000 SHELBYVILLE RD,LOUISVILLE,KY,40207,38.2502606000,-85.6246614000,(502) 897-3272
64344,"BATS FIELDERS FARE #106",401 E MAIN ST,LOUISVILLE,KY,40202,38.2554360000,-85.7441280000,(502) 639-2953
64345,"ATRIA STONY BROOK",3451 S HURSTBOURNE PKWY,LOUISVILLE,KY,40299,.0000000000,.0000000000,(502) 499-1393
64357,"BATS GRILL CART #123",401 E MAIN ST,LOUISVILLE,KY,40202,38.2554360000,-85.7441280000,(502) 639-2953
64358,"BATS GRILL CART #19",401 E MAIN ST,LOUISVILLE,KY,40202,38.2554360000,-85.7441280000,(502) 639-2953
64728,"ELTARASCO #1",5425 NEW CUT ROAD,LOUISVILLE,KY,40215,38.1486000000,-85.7755000000,(502) 368-5628
64736,"PANERA BREAD #826",6221 DUTCHMANS LN,LOUISVILLE,KY,40207,38.2305370000,-85.6396590000,(502) 895-9991
64408,"WAFFLE HOUSE #1398",12020 STANDIFORD PLAZA DR,LOUISVILLE,KY,40229,38.0866830000,-85.6667660000,(502) 896-2409
64329,"BATS OVERLOOK GRILL #152",401 E MAIN ST,LOUISVILLE,KY,40202,38.2554360000,-85.7441280000,(502) 639-2953
64332,"WENDYS",4955 BROWNSBORO RD,LOUISVILLE,KY,40222,38.2837580000,-85.6291800000,(502) 412-0297
64467,"MAYAN CAFE",813 E MARKET ST,LOUISVILLE,KY,40206,38.2535290000,-85.7373580000,(502) 566-0651
64468,"WICKS PIZZA #3",12717 SHELBYVILLE RD,LOUISVILLE,KY,40243,38.2438930000,-85.5197857000,(502) 213-9425
65168,"HONEY BAKED HAM",4600 SHELBYVILLE RD,LOUISVILLE,KY,40207,38.2494816000,-85.6308412000,(502) 895-6001
65180,"HIBACHI SUSHI GRILL",5729 PRESTON HIGHWAY,LOUISVILLE,KY,40219,38.1671000000,-85.7020000000,(502) 969-3788
65319,"DAYS INN",1620 ARTHUR ST,LOUISVILLE,KY,40208,38.2231510000,-85.7517600000,(502) 636-3781
65323,"PAPA JOHNS PIZZA #36",3511 SPRINGHURST COMMONS DR,LOUISVILLE,KY,40241,38.2969541000,-85.5610296000,(502) 426-8999
65058,"QUALITY INN AND SUITES",311 E GAULBERT AVE,LOUISVILLE,KY,40208,38.2240500000,-85.7518200000,(502) 638-6100
65215,"JUMBO BUFFET",2731 S HURSTBOURNE PKWY,LOUISVILLE,KY,40220,.0000000000,.0000000000,(502) 495-0028
65217,"ST. STEPHEN MARTYR MULTIPURPOSE BUILDING",3015 GREENUP RD,LOUISVILLE,KY,40217,38.2093825000,-85.7290960000,(502) 635-5813
65211,"STARBUCKS #2466",7900 SHELBYVILLE RD,LOUISVILLE,KY,40222,38.2469290000,-85.6081470000,(502) 429-0277
64935,"SWIFT COMPANY CAFETERIA",1200 STORY AVE,LOUISVILLE,KY,40206,38.2550320000,-85.7280730000,(502) 585-1835
64936,"CENTER CAFE",750 CYPRESS STATION DR,LOUISVILLE,KY,40207,38.2411249000,-85.6263550000,(502) 896-3900
64938,"PONDER CREEK",620 VALLEY COLLEGE DRIVE,LOUISVILLE,KY,40272,38.1199000000,-85.8438000000,(502) 995-4010
64895,"ST. JUDE WOMENS RECOVERY CENTER",431 E ST. CATHERINE ST,LOUISVILLE,KY,40203,.0000000000,.0000000000,(502) 589-6024
64978,"BACKYARD BURGERS",1800 PRIORITY WAY,LOUISVILLE,KY,40299,38.2166659000,-85.5417410000,(502) 240-9945
64818,"LOTSA PASTA EXTENSION",121 BAUER AVE,LOUISVILLE,KY,40207,38.2523290000,-85.6609930000,(502) 257-7200
65088,"TUMBLEWEED #521",3550 SPRINGHURST COMMONS DR,LOUISVILLE,KY,40541,38.2969706000,-85.5610669000,(502) 412-8171
65089,"POPEYES",5003 PRESTON HIGHWAY,LOUISVILLE,KY,40213,38.1755000000,-85.7131000000,(502) 969-5056
65005,"HOLIDAY INN EXPRESS",3711 CHAMBERLAIN LN,LOUISVILLE,KY,40241,38.3012891000,-85.5471678000,(502) 814-0004
65773,"COUNTRY INN SUITES",1241 KENTUCKY MILLS DR,LOUISVILLE,KY,40299,38.2230679000,-85.5419783000,(502) 261-9434
65772,"MCALISTERS #1078",10041 FOREST GREEN BLVD,LOUISVILLE,KY,40223,38.2631164000,-85.5706351000,(502) 425-8900
65555,"TUMBLEWEED",4255 OUTER LOOP,LOUISVILLE,KY,40219,38.1388010000,-85.6828340000,(502) 966-0307
65675,"TARASCO",110 FAIRFAX AVE,LOUISVILLE,KY,40207,38.2519020000,-85.6510103000,(502) 895-1212
64047,"COVER ALL CAFE",5001 STEPHAN DR,LOUISVILLE,KY,40258,38.1281940000,-85.8511259000,(502) 935-2885
64100,"PAPA JOHNS PIZZA #1448",401 E MAIN ST,LOUISVILLE,KY,40202,38.2554360000,-85.7441280000,(502) 583-7272
64221,"PAPA JOHNS PIZZA #20",5911 TIMBER RIDGE DRIVE,PROPSECT,KY,40059,38.3396000000,-85.6208000000,(502) 228-1000
64230,"BARTON HOUSE",6830 OVERLOOK DRIVE,LOUISVILLE,KY,40241,38.2958000000,-85.6256000000,(502) 423-7177
63832,"BUFFALO WILD WINGS #35",9134 TAYLORSVILLE RD,LOUISVILLE,KY,40299,38.2133697000,-85.5885211000,(502) 499-2356
63833,"FLANAGANS ALE HOUSE",934 BAXTER AVE,LOUISVILLE,KY,40204,38.2415385000,-85.7254017000,(502) 585-3700
63865,"BATS MAIN KITCHEN ARENA",401 E MAIN ST,LOUISVILLE,KY,40202,38.2554360000,-85.7441280000,(502) 291-1238
63866,"BATS GRAND SLAM #120",401 E MAIN ST,LOUISVILLE,KY,40202,38.2554360000,-85.7441280000,(502) 291-1238
63767,"MEXICANA",6201 PRESTON HWY,LOUISVILLE,KY,40219,38.1608200000,-85.6969600000,(502) 449-4794
63778,"PAPA JOHNS PIZZA 2000",2002 PAPA JOHNS BLVD,LOUISVILLE,KY,40299,38.2129960000,-85.5321690000,(502) 261-7272
63900,"BATS CONCESSION STAND #201",401 E MAIN ST,LOUISVILLE,KY,40202,38.2554360000,-85.7441280000,(502) 291-1238
63901,"BATS FIRST BASE GRILL",401 E MAIN ST,LOUISVILLE,KY,40202,38.2554360000,-85.7441280000,(502) 291-1238
63905,"PAPA JOHNS PIZZA #81",411 S. 2ND STREET,LOUISVILLE,KY,40202,38.2524000000,-85.7538000000,(502) 584-1198
63729,"FIREFRESH BBQ",211 S 5TH ST,LOUISVILLE,KY,40202,38.2549346000,-85.7584099000,(502) 540-1171
63960,"GRAETERS",2204 BARDSTOWN RD,LOUISVILLE,KY,40205,38.2244598000,-85.6937158000,
63961,"HEINE BROTHERS COFFEE",2200 BARDSTOWN RD,LOUISVILLE,KY,40205,38.2241668000,-85.6937426000,(502) 515-0380
63867,"BATS STAND #204",401 E MAIN ST,LOUISVILLE,KY,40202,38.2554360000,-85.7441280000,(502) 291-1238
63868,"BATS HOME PLATE STANDS",401 E MAIN ST,LOUISVILLE,KY,40202,38.2554360000,-85.7441280000,(502) 291-1238
63869,"BATS BLUEBELL ICE CREAM",401 E MAIN ST,LOUISVILLE,KY,40202,38.2554360000,-85.7441280000,(502) 291-1238
67020,"ST. PAUL  INSIDE CONCESSION",6901 DIXIE HWY,LOUISVILLE,KY,40258,38.1502234000,-85.8369409000,(502) 935-5511
67023,"BUTLER HS CONCESSION OUTSIDE",2222 CRUMS LN,LOUISVILLE,KY,40216,38.1945160000,-85.8148100000,(502) 485-8220
67024,"RESIDENCE INN",120 N HURSTBOURNE PKWY,LOUISVILLE,KY,40222,.0000000000,.0000000000,(502) 425-1821
67025,"DISMAS CHARITIES ST ANN",1515 ALGONQUIN PKWY,LOUISVILLE,KY,40210,.0000000000,.0000000000,(502) 637-9150
67026,"PRP MAGNET SCHOOL OUTSIDE CONCESSION",5901 GREENWOOD RD,LOUISVILLE,KY,40258,38.1444732000,-85.8630451000,(502) 485-8311
67018,"BETH HAVEN  INSIDE CONCESSION",5515 JOHNSONTOWN RD,LOUISVILLE,KY,40272,38.1221000000,-85.8718000000,(502) 937-3516
67031,"ST. ANDREW INSIDE CONCESSION",7718 COLUMBINE DR,LOUISVILLE,KY,40258,38.1424313000,-85.8644195000,(502) 935-4578
67309,"BRIDGEHAVEN",950 S 1ST ST,LOUISVILLE,KY,40202,38.2395890000,-85.7546636000,(502) 589-9444
66858,"STARBUCKS #2562",4001 SUMMIT PLAZA DR,LOUISVILLE,KY,40241,38.3079800000,-85.5765230000,(502) 339-8118
66871,"HOLY CROSS HS CONCESSION",5144 DIXIE HWY,LOUISVILLE,KY,40216,38.1657027000,-85.8326098000,(502) 447-4363
66873,"ST. LAWRENCE FOOTBALL CONCESSIONS",1925 LEWISTON DR,LOUISVILLE,KY,40216,38.1711897000,-85.8315525000,(502) 448-2122
66736,"BARNES AND NOBLE BOOKSELLERS",4100 SUMMIT PLAZA DRIVE,LOUISVILLE,KY,40241,38.3059000000,-85.5774000000,
66738,"ALLEY CAT CAFE",11804 SHELBYVILLE RD,LOUISVILLE,KY,40243,38.2472803000,-85.5380752000,(502) 245-6544
66741,"THUY VAN CAFE",5600 NATIONAL TURNPIKE,LOUISVILLE,KY,40214,38.1493279000,-85.7617320000,(502) 366-6959
66687,"SUBWAY",1823 PLANTSIDE DR,LOUISVILLE,KY,40299,38.2215186000,-85.5763446000,(502) 499-0820
66690,"STARBUCKS #2561",4400 SHELBYVILLE RD,LOUISVILLE,KY,40207,38.2509096000,-85.6345631000,(502) 899-1201
66693,"MCDONALDS #7536",5905 TIMBER RIDGE ROAD,PROSPECT,KY,40059,38.3391000000,-85.6204000000,(502) 292-0755
66831,"CARRABBAS ITALIAN GRILL #6801",617 S. HURSTBOURNE PARKWAY,LOUISVILLE,KY,40223,38.2379000000,-85.5764000000,(502) 412-2218
66833,"WHITE CASTLE #33",12413 SHELBYVILLE RD,LOUISVILLE,KY,40243,38.2458900000,-85.5241560000,(502) 489-3761
67329,"FRANCISCAN COMMUNITIES HEALTHCARE CTR",3625 FERN VALLEY RD,LOUISVILLE,KY,40219,38.1571049000,-85.6965082000,(502) 964-3381
67334,"STARBUCKS #2487",972 BAXTER AVE,LOUISVILLE,KY,40204,38.2407530000,-85.7246860000,(502) 625-1815
67336,"DOUBLE DRAGON II",12480 LAGRANGE RD,LOUISVILLE,KY,40245,.0000000000,.0000000000,(502) 241-7766
67341,"INDIS",5009 S 3RD ST,LOUISVILLE,KY,40214,38.1739210000,-85.7670450000,(502) 363-2535
67343,"AUGUST MOON",2269 LEXINGTON RD,LOUISVILLE,KY,40206,38.2458650000,-85.7052430000,(502) 456-6569
67319,"CATHEDRAL OF THE ASSUMPTION",443 S. 5TH STREET,LOUISVILLE,KY,40202,38.2517000000,-85.7588000000,(502) 582-2971
67435,"VOLARE RISTORANTE",2300 FRANKFORT AVE,LOUISVILLE,KY,40206,38.2532708000,-85.7030587000,(502) 894-4446
67437,"FAZOLIS",337 WHITTINGTON PARKWAY,LOUISVILLE,KY,40222,38.2432000000,-85.5776000000,(502) 423-1777
68063,"PIZZA HUT #014321",3610 SPRINGHURST BLVD,LOUISVILLE,KY,40241,38.2993444000,-85.5604656000,(502) 339-9339
67845,"CALIFORNIA PIZZA KITCHEN",7900 SHELBYVILLE RD,LOUISVILLE,KY,40222,38.2469290000,-85.6081470000,(502) 993-0499
67846,"STARBUCKS #2633",9036 TAYLORSVILLE RD,LOUISVILLE,KY,40299,38.2149229000,-85.5903511000,(502) 493-5970
68285,"STONEY RIVER LEGENDARY STEAKS",3900 SUMMIT PLAZA DR,LOUISVILLE,KY,40241,38.3071160000,-85.5761550000,(502) 429-8944
68286,"YMCA SAFE PLACE SERVICES",2400 CRITTENDEN DR,LOUISVILLE,KY,40217,38.2110643000,-85.7514413000,(502) 635-5233
68100,"ALL ABOUT KIDS CARTWHEEL CAFE",2531 BLANKENBAKER PKWY,LOUISVILLE,KY,40299,38.2079000000,-85.5375000000,(502) 809-1386
68438,"HAWTHORN SUITES BY WYNDHAM",751 CYPRESS STATION DR,LOUISVILLE,KY,40207,38.2422280000,-85.6268939000,(502) 899-5959
68306,"PAPA JOHNS PIZZA #200",2111 W BROADWAY,LOUISVILLE,KY,40210,38.2494662000,-85.7870968000,(502) 772-2430
67850,"GRAETERS ICE CREAM #5",6509 BARDSTOWN RD,LOUISVILLE,KY,40291,38.1518000000,-85.5877000000,(502) 231-2083
67851,"COURTYARD BY MARRIOTT",819 PHILLIPS LN,LOUISVILLE,KY,40209,38.1922080000,-85.7428670000,(502) 368-5678
66682,"SAMS CLUB #8276 SNACKBAR",6622 PRESTON HWY,LOUISVILLE,KY,40219,38.1553695000,-85.6963357000,(502) 964-0379
66613,"BALLARD HS FOOTBALL CONCESSION",6000 BROWNSBORO RD,LOUISVILLE,KY,40222,38.2838210000,-85.6243670000,(502) 930-6791
66615,"WOW WINGERY",2001 NEWBURG RD,LOUISVILLE,KY,40205,38.2207340000,-85.7041630000,(502) 452-8437
66139,"MCDONALDS",2314 BROWNSBORO RD,LOUISVILLE,KY,40206,38.2582490000,-85.7027325000,(502) 721-9055
66407,"DOMINOS PIZZA #1434",8054 NEW LAGRANGE ROAD,LOUISVILLE,KY,40222,38.2586000000,-85.6032000000,(502) 423-0030
66464,"MCALISTERS #1079",2721 S HURSTBOURNE PKWY,LOUISVILLE,KY,40220,.0000000000,.0000000000,(502) 671-2424
66465,"JERSEY MIKES SUBS #2",10519 FISCHER PARK DR,LOUISVILLE,KY,40241,38.2959820000,-85.5583040000,(502) 425-1025
66618,"CENTRAL HIGH SCHOOL FOOTBALL CONCESSIONS",1500 W MUHAMMAD ALI BLVD,LOUISVILLE,KY,40203,38.2529449000,-85.7759680000,(502) 485-8226
66448,"JADE GARDEN",4801 OUTER LOOP,LOUISVILLE,KY,40219,38.1406381000,-85.6714077000,(502) 594-2545
66126,"WAFFLE HOUSE #1444",7715 BARDSTOWN RD,LOUISVILLE,KY,40291,38.1349405000,-85.5795333000,(502) 231-6559
66130,"WENDYS",5036 MUD LN,LOUISVILLE,KY,40229,38.0925450000,-85.6697571000,(502) 964-3007
66320,"DRURY INN #105",9501 BLAIRWOOD RD,LOUISVILLE,KY,40222,38.2260956000,-85.5803918000,(502) 326-4170
66108,"SHAWNEE COMPLEX",230 SOUTHWESTERN PKWY,LOUISVILLE,KY,40212,.0000000000,.0000000000,(502) 774-4072
66114,"AFC SUSHI AT KROGER #379",9080 TAYLORSVILLE RD,LOUISVILLE,KY,40299,38.2143126000,-85.5895630000,(502) 491-8805
66115,"STARBUCKS #2472",241 BLANKENBAKER PKWY,LOUISVILLE,KY,40243,38.2419535000,-85.5460104000,(502) 245-4047
66116,"ARBYS #7204",12424 LAGRANGE RD,LOUISVILLE,KY,40245,.0000000000,.0000000000,
66314,"STARBUCKS #2541",101 N HURSTBOURNE PKWY,LOUISVILLE,KY,40222,.0000000000,.0000000000,(502) 412-4545
69245,"STEVES BAR AND GRILL",1670 S 17TH ST,LOUISVILLE,KY,40210,38.2265510000,-85.7850800000,(502) 772-0607
69483,"BRISTOL BAR AND GRILLE",614 W MAIN ST,LOUISVILLE,KY,40202,38.2567100000,-85.7605820000,(502) 582-1995
69329,"BRAVO CUCINO ITALIAN",206 BULLITT LN,LOUISVILLE,KY,40222,38.2475080000,-85.6168050000,(502) 326-0491
69467,"NORTH END CAFE",1722 FRANKFORT AVE,LOUISVILLE,KY,40206,38.2574374000,-85.7186476000,(502) 896-8770
69470,"JERSEY MIKES SUBS",10266 SHELBYVILLE ROAD,LOUISVILLE,KY,40223,38.2450000000,-85.5642000000,(502) 244-1991
69478,"CROSBY PARK CONCESSION",219 MADISON AVE,LOUISVILLE,KY,40253,.0000000000,.0000000000,(502) 245-7585
69480,"WENDYS",2800 PACKERLAND WAY,LOUISVILLE,KY,40213,38.1561480000,-85.7138260000,(502) 964-8433
69082,"HOLY FAMILY CHURCH - SAFFIN CENTER",3938 POPLAR LEVEL ROAD,LOUISVILLE,KY,40213,.0000000000,.0000000000,(502) 458-4531
70155,"HONG KONG FAST FOOD",5312 S 3RD ST,LOUISVILLE,KY,40214,38.1707159000,-85.7685284000,(502) 367-8828
70164,"HILTON GARDEN INN",2735 CRITTENDEN DR,LOUISVILLE,KY,40209,38.2040423000,-85.7506990000,(502) 637-2424
69999,"PENN STATION #8",2017 S. HURSTBOURNE PARKWAY,LOUISVILLE,KY,40220,38.2168000000,-85.5870000000,(502) 491-8282
70057,"SINCERELY YOURS CATERING",1515 CYPRESS ST,LOUISVILLE,KY,40211,38.2296390000,-85.7979620000,(502) 774-3766
69809,"EL NOPAL",5444 NEW CUT ROAD,LOUISVILLE,KY,40214,38.1476000000,-85.7762000000,(502) 380-8447
69814,"AMICI",316 W ORMSBY AVE,LOUISVILLE,KY,40203,38.2327310000,-85.7594300000,(502) 637-9899
69762,"HOME OF THE INNOCENTS",1100 E MARKET ST,LOUISVILLE,KY,40204,38.2520257000,-85.7316881000,(502) 596-1000
69764,"EL NOPAL",11336 PRESTON HIGHWAY,LOUISVILLE,KY,40229,38.0840000000,-85.6702000000,(502) 961-9851
69770,"WAFFLE HOUSE #1568",4029 TAYLORSVILLE RD,LOUISVILLE,KY,40220,38.2200778000,-85.6232917000,(502) 485-9765
70710,"FOUR POINTS BY SHERATON",2850 CRITTENDEN DR,LOUISVILLE,KY,40209,38.2020190000,-85.7508010000,(502) 753-5555
70722,"PENN STATION",300 W WOODLAWN AVE,LOUISVILLE,KY,40214,38.1812765000,-85.7664909000,(502) 363-6667
70742,"DANISH EXPRESS",102 CANNONS LN,LOUISVILLE,KY,40206,38.2537239000,-85.6704141000,(502) 895-2865
70508,"CAFFE CLASSICO",2144 FRANKFORT AVE,LOUISVILLE,KY,40206,38.2534875000,-85.7062295000,(502) 894-0199
70559,"CARDS CLUB MAIN KITCHEN",2800 S FLOYD ST,LOUISVILLE,KY,40209,38.2055170000,-85.7567210000,(502) 852-0083
70591,"SUBWAY #2824",9501 TAYLORSVILLE RD,LOUISVILLE,KY,40299,38.2063563000,-85.5810000000,(502) 267-1173
70592,"FAMOUS DAVES",8605 CITADEL WAY,LOUISVILLE,KY,40220,38.2125100000,-85.5975280000,(502) 493-2812
70333,"YANG KEE NOODLE",7900 SHELBYVILLE RD,LOUISVILLE,KY,40222,38.2469290000,-85.6081470000,(502) 426-0800
70433,"MOES SOUTHWEST GRILL",2001 S. HURSTBOURNE PARKWAY,LOUISVILLE,KY,40220,38.2169000000,-85.5867000000,(502) 491-1800
70643,"MINARDI HALL",2040 S 4TH ST,LOUISVILLE,KY,40292,38.2195439000,-85.7631361000,(502) 852-6996
69071,"DOMINOS PIZZA #1433",5400 PRESTON HWY,LOUISVILLE,KY,40213,38.1702740000,-85.7089230000,(502) 966-3000
69072,"AUNTIE ANNES",4801 OUTER LOOP,LOUISVILLE,KY,40219,38.1406381000,-85.6714077000,(812) 423-4417
68656,"LONGHORN STEAKHOUSE",2535 HURSTBOURNE GEM LN,LOUISVILLE,KY,40220,38.2142089000,-85.5935640000,(502) 671-5350
68661,"BONEFISH GRILL",657 S. HURSTBOURNE PARKWAY,LOUISVILLE,KY,40222,38.2378000000,-85.5756000000,(502) 412-4666
68711,"ARBYS #7349",2804 CRITTENDEN DR,LOUISVILLE,KY,40209,38.2025226000,-85.7511247000,(502) 634-9910
68713,"PENN STATION",6525 BARDSTOWN RD,LOUISVILLE,KY,40291,38.1512394000,-85.5878603000,(502) 231-9929
68548,"MID AMERICAN SPORTS CENTER",1906 WATTERSON TRAIL,LOUISVILLE,KY,40299,38.2176460000,-85.5597770000,(502) 817-0659
68549,"WENDYS",3301 CANE RUN RD,LOUISVILLE,KY,40211,38.2239110000,-85.8091130000,(502) 778-8778
68550,"DOMINOS PIZZA #1424",812 EASTERN PKWY,LOUISVILLE,KY,40217,.0000000000,.0000000000,(502) 637-3030
68592,"WHITE CASTLE #36",12006 DIXIE HWY,LOUISVILLE,KY,40272,38.0812350000,-85.8831680000,(502) 937-3633
68596,"CAFE JOKER",3912 BARDSTOWN RD,LOUISVILLE,KY,40218,38.1944700000,-85.6525050000,(502) 491-2454
68545,"EMBASSY SUITES",9940 CORPORATE CAMPUS DR,LOUISVILLE,KY,40223,38.2647470000,-85.5719300000,(502) 426-9191
68546,"FAZOLIS",11806 STANDIFORD PLAZA DRIVE,LOUISVILLE,KY,40229,38.0918000000,-85.6679000000,(502) 969-4442
68467,"JIMBOS BBQ",801 W KENWOOD DR,LOUISVILLE,KY,40214,38.1619110000,-85.7782140000,(502) 262-7587
68725,"LAQUINTA INN AND SUITES",4125 PRESTON HIGHWAY,LOUISVILLE,KY,40213,38.1926000000,-85.7279000000,(502) 368-0007
71826,"TGI FRIDAYS",415 S 4TH ST,LOUISVILLE,KY,40202,38.2526280000,-85.7571870000,(502) 585-3577
71712,"LUIGIS",712 W MAIN ST,LOUISVILLE,KY,40202,38.2572244000,-85.7622558000,(502) 589-0005
71713,"PAPA MURPHYS",5016 MUD LN,LOUISVILLE,KY,40229,38.0913320000,-85.6694970000,(502) 962-7272
71714,"HEINE BROS. COFFEE",516 W MAIN ST,LOUISVILLE,KY,40202,38.2568591000,-85.7588933000,(502) 568-6339
71722,"AFC SUSHI AT KROGER #356",12501 SHELBYVILLE RD,LOUISVILLE,KY,40243,38.2453080000,-85.5214390000,(502) 244-7957
71813,"HARD ROCK CAFE",424 S. 4TH STREET,LOUISVILLE,KY,40202,38.2521000000,-85.7577000000,(502) 588-2202
71704,"NEW DIRECTIONS BAR AND GRILL",2630 CHAMBERLAIN LN,LOUISVILLE,KY,40245,38.2901379000,-85.5152377000,(502) 243-8429
72441,"AFC SUSHI AT KROGER #389",5929 TIMBER RIDGE DR,PROPSECT,KY,40059,.0000000000,.0000000000,(502) 292-2464
72123,"AUDUBON CC POOL SNACK BAR",3265 ROBIN RD,LOUISVILLE,KY,40213,38.0735518000,-85.6650043000,(502) 636-1331
71986,"MOES SOUTHWEST GRILL",1001 BRECKENRIDGE LN,LOUISVILLE,KY,40207,38.2328632000,-85.6384046000,(502) 893-6637
72496,"SPINELLIS",614 BAXTER AVE,LOUISVILLE,KY,40204,38.2455400000,-85.7287930000,(502) 568-5665
71980,"AFC SUSHI AT KROGER #707",9440 BROWNSBORO RD,LOUISVILLE,KY,40241,38.3060300000,-85.5747150000,(502) 425-8542
71981,"PAPA MURPHYS",291 N. HUBBARDS LANE,LOUISVILLE,KY,40207,38.2585000000,-85.6368000000,(502) 895-6363
72420,"J GUMBOS",2109 FRANKFORT AVE,LOUISVILLE,KY,40206,38.2540988000,-85.7079829000,(502) 896-4046
72225,"DOUBLE DRAGON #9",9501 TAYLORSVILLE RD,LOUISVILLE,KY,40299,38.2063563000,-85.5810000000,(502) 267-5353
72216,"TAIPEI CAFE",411 S 4TH ST,LOUISVILLE,KY,40202,38.2525076000,-85.7571901000,(502) 584-2787
72218,"AFC SUSHI AT KROGER #339",2440 BARDSTOWN RD,LOUISVILLE,KY,40205,38.2231990000,-85.6876170000,(502) 459-9805
72220,"MCALISTERS #1149",6510 BARDSTOWN RD,LOUISVILLE,KY,40291,38.1525113000,-85.5887732000,(502) 239-9997
72894,"FIESTA TIME MEXICAN GRILL",11320 MAPLE BROOK DR,LOUISVILLE,KY,40241,38.3020054000,-85.5446785000,(502) 425-9133
72900,"HOWL AT THE MOON",434 S 4TH ST,LOUISVILLE,KY,40202,38.2523350000,-85.7572630000,(502) 562-9400
72901,"JASMINE CHINESE CUISINE",13825 ENGLISH VILLA DR,LOUISVILLE,KY,40245,38.2398305000,-85.4950110000,(502) 264-8896
72902,"PANERA BREAD #904",10451 CHAMPION FARMS DR,LOUISVILLE,KY,40241,38.2969289000,-85.5629444000,(502) 426-2134
72904,"BOURBON RAW KENTUCKY KITCHEN",446 S. 4TH STREET,LOUISVILLE,KY,40202,38.2517000000,-85.7577000000,(502) 568-9009
72891,"AFC SUSHI AT KROGER #387",279 N HUBBARDS LN,LOUISVILLE,KY,40207,38.2589049000,-85.6402976000,(502) 895-8332
72909,"CHICK-FIL-A",10501 WESTPORT ROAD,LOUISVILLE,KY,40241,38.2948000000,-85.5584000000,(502) 339-0505
72632,"FEAST OF LOVE",1201 S. 36TH STREET,LOUISVILLE,KY,40211,38.2391000000,-85.8134000000,(502) 774-3281
72626,"SUNERGOS COFFEE",2122 S PRESTON ST,LOUISVILLE,KY,40217,38.2167097000,-85.7451558000,(502) 634-1243
72741,"PIZZA HUT",8131 BARDSTOWN RD,LOUISVILLE,KY,40291,38.1293735000,-85.5751577000,(502) 231-9090
72775,"SUBWAY #4260",12422 SHELBYVILLE RD,LOUISVILLE,KY,40243,38.2437324000,-85.5205153000,(502) 244-4782
72776,"GRAETERS ICE CREAM",13817 ENGLISH VILLA DR,LOUISVILLE,KY,40245,38.2401849000,-85.4945440000,(502) 254-1260
72637,"PENN STATION",4000 DIXIE HWY,LOUISVILLE,KY,40216,38.1920436000,-85.8082511000,(502) 448-4334
72739,"AMERICAS BEST VALUE INN",1735 STEWART AVE,LOUISVILLE,KY,40216,38.1802740000,-85.8148410000,(502) 449-7376
73000,"PUZZLES FUN DOME",11530 BLUEGRASS PKWY,LOUISVILLE,KY,40299,.0000000000,.0000000000,(502) 261-7144
71377,"BROWNIES GRILL AND BAR",235 WHITTINGTON PKWY,LOUISVILLE,KY,40222,.0000000000,.0000000000,(502) 423-1414
71383,"SUBWAY #24964",3314 PRESTON HWY,LOUISVILLE,KY,40213,38.2004614000,-85.7337536000,(502) 368-6650
70910,"OUTBACK STEAKHOUSE #1815",8101 BARDSTOWN RD,LOUISVILLE,KY,40291,38.1297300000,-85.5754930000,(502) 231-2399
70911,"GOODWOOD BREWING COMPANY",636 E MAIN ST,LOUISVILLE,KY,40202,38.2566643000,-85.7589444000,(502) 584-2739
71300,"PIZZA PLACE",2931 RICHLAND AVENUE,LOUISVILLE,KY,40220,38.2211000000,-85.6259000000,(502) 451-2237
71302,"DONS FUN FOODS",1745 LINCOLN AVE,LOUISVILLE,KY,40217,38.1991500000,-85.7047890000,(502) 410-8253
71307,"TUMBLEWEED",8609 CITADEL WAY,LOUISVILLE,KY,40299,38.2126368000,-85.5966936000,(502) 493-0905
71308,"MIDDLETOWN CHRISTIAN VILLAGE",11530 HERRICK LN,LOUISVILLE,KY,40243,38.2395548000,-85.5423091000,(502) 420-9840
71328,"TSUNAMI  KROGER #186",2219 HOLIDAY MANOR CENTER,LOUISVILLE,KY,40222,38.2840330000,-85.6307461000,(502) 425-6960
71102,"MOBY DICK",3613 BARDSTOWN RD,LOUISVILLE,KY,40218,38.1995581000,-85.6609198000,(502) 456-4777
71106,"PAPA JOHNS #11",14041 SHELBYVILLE RD,LOUISVILLE,KY,40245,38.2392959000,-85.4887416000,(502) 254-7272
71011,"COLD STONE CREAMERY",2015 S. HURSTBOURNE PARKWAY,LOUISVILLE,KY,40220,38.2168000000,-85.5869000000,(502) 499-7750
71030,"CARDINAL HALL OF FAME",2745 CRITTENDEN DR,LOUISVILLE,KY,40209,38.2032741000,-85.7507684000,(502) 635-8686
71031,"MCALISTERS #1135",2400 LIME KILN LN,LOUISVILLE,KY,40222,38.2868179000,-85.6291800000,(502) 339-8544
71263,"CHEER KING STAR",231 S. 5TH STREET,LOUISVILLE,KY,40202,38.2545000000,-85.7584000000,(502) 587-8686
71269,"SMOOTHIE KING",2400 LIME KILN LN,LOUISVILLE,KY,40222,38.2868179000,-85.6291800000,(502) 426-1971
71270,"FAIRDALE LIONS CLUB",10101 MITCHELL HILL RD,FAIRDALE,KY,40118,.0000000000,.0000000000,(502) 368-3479
71271,"BUFFALO WILD WINGS",1055 BARDSTOWN RD,LOUISVILLE,KY,40204,38.2393790000,-85.7219970000,(502) 454-3635
73996,"JIM PATTERSON STADIUM",3015 S 3RD ST,LOUISVILLE,KY,40208,38.2059520000,-85.7637330000,(502) 852-3580
74005,"ST. MARTHAS CONCESSION STAND",2825 KLONDIKE LN,LOUISVILLE,KY,40218,38.2018620000,-85.6412960000,(502) 491-8535
74006,"DOMINOS PIZZA #1428",130 BRECKENRIDGE LN,LOUISVILLE,KY,40207,38.2517485000,-85.6548918000,(502) 897-3030
74011,"BILLIARDS CLUB OF LOUISVILLE",5404 BARDSTOWN RD,LOUISVILLE,KY,40291,38.1680352000,-85.6038535000,(502) 491-3810
73985,"PENN STATION",3707 CHAMBERLAIN LN,LOUISVILLE,KY,40241,38.3015213000,-85.5454515000,(502) 426-2524
73987,"LONG JOHN SILVERS",5447 NEW CUT RD,LOUISVILLE,KY,40214,38.1466310000,-85.7750600000,(502) 361-1951
74656,"PF CHANGS",9120 SHELBYVILLE ROAD,LOUISVILLE,KY,40222,38.2463000000,-85.5806000000,(502) 327-7707
74259,"STARBUCKS TARGET T-0780",4640 TAYLORSVILLE RD,LOUISVILLE,KY,40220,38.2156210000,-85.5948760000,(502) 493-8717
74260,"KFC",4441 CANE RUN RD,LOUISVILLE,KY,40216,38.1957770000,-85.8412500000,(502) 448-3196
74391,"SUBWAY #12335",3939 TAYLORSVILLE RD,LOUISVILLE,KY,40220,38.2201114000,-85.6272257000,(502) 456-0600
74670,"SALSARITAS",285 N HUBBARDS LN,LOUISVILLE,KY,40207,38.2580310000,-85.6390930000,(502) 897-5323
74263,"TURFWINN KITCHEN",700 CENTRAL AVE,LOUISVILLE,KY,40208,38.2018590000,-85.7711110000,(502) 638-3925
74264,"IN SEAT 3RD FLOOR",700 CENTRAL AVE,LOUISVILLE,KY,40208,38.2018590000,-85.7711110000,(502) 638-3925
74265,"FINISH LINE SUITES",700 CENTRAL AVE,LOUISVILLE,KY,40208,38.2018590000,-85.7711110000,(502) 638-3925
74408,"LEMONGRASS RESTAURANT",11606 SHELBYVILLE RD,LOUISVILLE,KY,40243,38.2459707000,-85.5412955000,(502) 344-7110
74409,"CHEESECAKE FACTORY",5000 SHELBYVILLE RD,LOUISVILLE,KY,40207,38.2502606000,-85.6246614000,(502) 893-1352
75196,"RESIDENCE INN",333 E MARKET ST,LOUISVILLE,KY,40202,38.2545440000,-85.7464720000,(502) 589-8998
75203,"MILLIONAIRE 4",700 CENTRAL AVE,LOUISVILLE,KY,40208,38.2018590000,-85.7711110000,(502) 368-3925
75206,"HOMEMADE ICE CREAM AND PIE KITCHEN",3737 LEXINGTON RD,LOUISVILLE,KY,40207,38.2525355000,-85.6589761000,(502) 893-3393
75115,"QUEUE CAFE",220 W MAIN ST,LOUISVILLE,KY,40202,38.2561744000,-85.7549216000,(502) 583-1341
75119,"SUBWAY #34164",2840 PACKERLAND WAY,LOUISVILLE,KY,40213,38.1558319000,-85.7131616000,(502) 966-6606
75121,"TACO BELL #22578",3520 BARDSTOWN RD,LOUISVILLE,KY,40218,38.2015123000,-85.6637046000,(502) 479-1582
73647,"CENTER FOR WOMEN AND FAMILIES",927 S 2ND ST,LOUISVILLE,KY,40203,38.2402800000,-85.7555690000,(502) 581-7200
73396,"GREAT LIFE CAFE - LOUISVILLE ATHLETIC CLUB",9565 TAYLORSVILLE ROAD,LOUISVILLE,KY,40299,38.2061000000,-85.5779000000,(502) 459-5092
73644,"STARBUCKS MARRIOTT",280 W JEFFERSON ST,LOUISVILLE,KY,40202,38.2531700000,-85.7546690000,
73595,"COMFORT SUITES",6535 PARAMOUNT PARK DRIVE,LOUISVILLE,KY,40213,38.1551000000,-85.7121000000,(502) 964-0740
73598,"MARRIOTT RESTAURANT",280 W JEFFERSON ST,LOUISVILLE,KY,40202,38.2531700000,-85.7546690000,(502) 627-5045
73599,"MARRIOTT BANQUET KITCHEN",280 W JEFFERSON ST,LOUISVILLE,KY,40202,38.2531700000,-85.7546690000,(502) 627-5045
73600,"VICTORIAS CATERING",5410 VALLEY STATION RD,LOUISVILLE,KY,40272,38.1066483000,-85.8639084000,(502) 933-2393
76472,"RED ROBIN",9870 VON ALLMEN CT,LOUISVILLE,KY,40241,38.3129660000,-85.5683370000,(502) 339-8616
76476,"STARBUCKS #10454",4801 OUTER LOOP,LOUISVILLE,KY,40219,38.1406381000,-85.6714077000,(206) 318-1575
76226,"JEFF RUBYS LOUISVILLE",325 W MAIN ST,LOUISVILLE,KY,40202,38.2574390000,-85.7556080000,(502) 584-0102
76227,"AFC SUSHI AT KROGER #743",12611 TAYLORSVILLE RD,LOUISVILLE,KY,40299,38.1888190000,-85.5187510000,(502) 261-0251
76228,"STARBUCKS #10637",5000 SHELBYVILLE RD,LOUISVILLE,KY,40207,38.2502606000,-85.6246614000,(502) 259-9949
76229,"HAMPTON INN AND SUITES LOUISVILLE EAST",1451 ALLIANT AVE,LOUISVILLE,KY,40299,38.2210020000,-85.5353470000,(502) 809-9901
76230,"CHILIS",11600 ANTONIA WAY,LOUISVILLE,KY,40229,38.0946570000,-85.6705580000,(502) 301-8181
76380,"CAFE 920",920 BLANKENBAKER PKWY,LOUISVILLE,KY,40243,38.2283000000,-85.5457000000,(502) 253-8920
76252,"BATS PRESTON PATIO GRILL CART #1",401 E MAIN ST,LOUISVILLE,KY,40202,38.2554360000,-85.7441280000,(502) 212-2287
76383,"STARBUCKS",3401 BARDSTOWN RD,LOUISVILLE,KY,40218,38.2056101000,-85.6661667000,(502) 454-6365
76384,"GLEN RIDGE HEALTH CAMPUS",6415 CALM RIVER WAY,LOUISVILLE,KY,40299,38.1514600000,-85.5496870000,(502) 297-8590
76927,"JIMMY JOHNS",3901 DUTCHMANS LN,LOUISVILLE,KY,40207,38.2338460000,-85.6362580000,(502) 894-9343
76934,"WING ZONE",905 HESS LN,LOUISVILLE,KY,40217,38.2054262000,-85.7360572000,(502) 636-2445
76935,"STARBUCKS",12605 TAYLORSVILLE ROAD,LOUISVILLE,KY,40299,38.1879000000,-85.5193000000,(502) 263-7135
76936,"STARBUCKS",6731 DIXIE HWY,LOUISVILLE,KY,40258,38.1518607000,-85.8359722000,(502) 263-7135
76940,"STARBUCKS #10559",3702 FRANKFORT AVE,LOUISVILLE,KY,40207,38.2529020000,-85.6606450000,(502) 896-8461
76958,"SHACK IN THE BACK BBQ",406 MT HOLLY RD,FAIRDALE,KY,40118,.0000000000,.0000000000,(502) 363-3227
77580,"LONGHORN STEAKHOUSE #287",9700 VON ALLMEN CT,LOUISVILLE,KY,40241,38.3114710000,-85.5736860000,(502) 326-7500
77586,"ARBYS #773",4975 SHELBYVILLE RD,LOUISVILLE,KY,40207,38.2504679000,-85.6247724000,(502) 259-9821
77591,"JIMMY JOHNS",4000 SHELBYVILLE RD,LOUISVILLE,KY,40207,38.2525661000,-85.6529920000,(502) 894-3331
77594,"ARBYS #7810",12933 SHELBYVILLE RD,LOUISVILLE,KY,40223,38.2428106000,-85.5112163000,(502) 254-0160
77279,"LITTLE CAESARS",10025 DIXIE HWY,LOUISVILLE,KY,40272,38.1094260000,-85.8655565000,(502) 937-7474
77404,"PANERA BREAD",3131 POPLAR LEVEL ROAD,LOUISVILLE,KY,40213,38.2120540000,-85.7196260000,(502) 637-9443
77405,"MIMIS CAFE",615 S HURSTBOURNE PKWY,LOUISVILLE,KY,40222,.0000000000,.0000000000,(502) 426-6588
77062,"SILVER SPOON",604 S 3RD ST,LOUISVILLE,KY,40202,38.2484440000,-85.7562710000,(502) 584-4379
77292,"JASONS DELI",410 N HURSTBOURNE PKWY,LOUISVILLE,KY,40222,.0000000000,.0000000000,(502) 412-4101
77293,"HOMEWOOD SUITES BY HILTON",9401 HURSTBOURNE TRACE,LOUISVILLE,KY,40222,38.2513000000,-85.5810000000,(502) 429-9070
77294,"AUNTIE ANNES",5000 SHELBYVILLE RD,LOUISVILLE,KY,40207,38.2502606000,-85.6246614000,(502) 893-4800
77295,"EDIBLE ARRANGEMENTS",3701 LEXINGTON RD,LOUISVILLE,KY,40207,38.2518462000,-85.6607398000,(502) 895-2377
77070,"PENN STATION",2204 HEATHER LN,LOUISVILLE,KY,40218,38.2057300000,-85.6657320000,(502) 494-8342
75793,"CHILIS",3623 BARDSTOWN RD,LOUISVILLE,KY,40218,38.1995128000,-85.6599766000,(502) 301-8888
75801,"KRISPY KREME",3000 BARDSTOWN RD,LOUISVILLE,KY,40205,38.2149920000,-85.6747632000,(502) 451-4880
75804,"AFC SUSHI AT KROGER #764",9501 WESTPORT RD,LOUISVILLE,KY,40241,38.2867506000,-85.5750782000,(502) 327-1630
75568,"PROOF ON MAIN BAR",700 W. MAIN STREET,LOUISVILLE,KY,40202,38.2570000000,-85.7617000000,(502) 217-6380
75548,"PAPA MURPHYS",12535 SHELBYVILLE RD,LOUISVILLE,KY,40243,38.2437535000,-85.5204681000,(502) 253-9191
75549,"1ST WOK",6413 GREENWOOD RD,LOUISVILLE,KY,40258,38.1446643000,-85.8693892000,(502) 935-6111
75560,"PROOF ON MAIN",702 W. MAIN STREET,LOUISVILLE,KY,40202,38.2571000000,-85.7615000000,(502) 589-4693
75562,"FRISCHS BIG BOY #203",6209 BARDSTOWN RD,LOUISVILLE,KY,40291,38.1554800000,-85.5889950000,(502) 762-9696
75566,"TORAZO MEXICAN RESTAURANT",1850 S HURSTBOURNE PKWY,LOUISVILLE,KY,40220,.0000000000,.0000000000,(502) 491-7272
75567,"KING PIN LANES",9525 TAYLORSVILLE ROAD,LOUISVILLE,KY,40299,38.2070000000,-85.5796000000,(502) 719-5464
77666,"KAREMS GRILL AND PUB",9424 NORTON COMMONS BLVD,PROSPECT,KY,40059,38.3246974000,-85.5658736000,(502) 327-5646
77667,"OLIVE GARDEN #1703",9730 VON ALLMEN COURT,LOUISVILLE,KY,40241,38.3113000000,-85.5717000000,(502) 425-3607
78692,"ROOSTERS",7405 PRESTON HWY,LOUISVILLE,KY,40219,38.1443550000,-85.6891500000,(502) 964-9464
78693,"SWEET SURRENDER",1804 FRANKFORT AVE,LOUISVILLE,KY,40206,38.2565755000,-85.7164645000,(502) 899-2008
78489,"HOMEMADE ICE CREAM AND PIE KITCHEN",5606 BARDSTOWN RD,LOUISVILLE,KY,40291,38.1630589000,-85.5983160000,(502) 239-3880
78571,"CHAMPS ROLLERDROME HURSTBOURNE",9851 LAGRANGE RD,LOUISVILLE,KY,40223,.0000000000,.0000000000,(502) 425-1717
78298,"SUBWAY",3935 S 7TH ST,LOUISVILLE,KY,40216,.0000000000,.0000000000,(502) 447-8600
78306,"GELATO GILBERTO",9434 NORTON COMMONS BLVD,PROSPECT,KY,40059,.0000000000,.0000000000,(502) 423-7751
78307,"PENN STATION",3928 DUTCHMANS LN,LOUISVILLE,KY,40207,38.2330766000,-85.6360386000,(502) 891-4100
78333,"BEECHMONT YOUTH SPORTS",5401 SOUTHSIDE DRIVE,LOUISVILLE,KY,40214,38.1702000000,-85.7639000000,(502) 364-6370
78597,"JIMMY JOHNS",1321 S. HURSTBOURNE PARKWAY,LOUISVILLE,KY,40220,38.2266000000,-85.5771000000,(502) 425-4515
78560,"WHITE CASTLE",9493 WESTPORT RD,LOUISVILLE,KY,40241,38.2872190000,-85.5745630000,(502) 473-7805
78566,"CAFE LOU-LOU",106 SEARS AVE,LOUISVILLE,KY,40207,38.2532400000,-85.6468070000,(502) 893-7776
78567,"IMPELLIZZERIS",1381 BARDSTOWN RD,LOUISVILLE,KY,40204,38.2335506000,-85.7119509000,(502) 454-2711
78485,"TACO TICO",5925 TERRY RD,LOUISVILLE,KY,40216,38.1653593000,-85.8656128000,(502) 449-9888
78291,"DIAMOND PUB AND BILLIARDS",3814 FRANKFORT AVE,LOUISVILLE,KY,40207,38.2525480000,-85.6565780000,(502) 895-7513
78391,"GOOSE CREEK DINER",2923 GOOSE CREEK RD,LOUISVILLE,KY,40241,38.2871806000,-85.5783991000,(502) 339-8070
79067,"MOES SOUTHWEST GRILL",9310 CEDAR CENTER WAY,LOUISVILLE,KY,40291,38.1446455000,-85.5881160000,(502) 295-9434
79068,"AFC SUSHI AT KROGER #753",1265 GOSS AVE,LOUISVILLE,KY,40217,38.2250841000,-85.7312642000,(502) 634-0724
79057,"PAPA MURPHYS",6756 BARDSTOWN RD,LOUISVILLE,KY,40291,38.1493923000,-85.5870045000,(502) 239-8282
78850,"VARANESE",2106 FRANKFORT AVE,LOUISVILLE,KY,40206,38.2539600000,-85.7084580000,(502) 899-9904
78853,"ST. XAVIER MAIN CONCESSION STAND",1609 POPLAR LEVEL RD,LOUISVILLE,KY,40217,38.2197735000,-85.7284711000,(502) 634-2141
78960,"COLES PLACE",2928 W. KENTUCKY STREET,LOUISVILLE,KY,40211,38.2437457000,-85.8023668000,(502) 778-4330
79224,"STARBUCKS",1321 S HURSTBOURNE LN,LOUISVILLE,KY,40222,.0000000000,.0000000000,(502) 429-9248
79235,"HOSPITALITY PROGRAM",800 E LIBERTY ST,LOUISVILLE,KY,40204,38.2503675000,-85.7384243000,(502) 585-3787
79560,"SHIRAZ MEDITERRANEAN GRILL",2210 HOLIDAY MANOR CENTER,LOUISVILLE,KY,40222,.0000000000,.0000000000,(502) 426-9954
79322,"JACKSONS FOOD SERVICE",600 W JEFFERSON ST,LOUISVILLE,KY,40203,38.2540380000,-85.7606290000,(502) 583-6463
79324,"CAFE",712 BRENT STREET,LOUISVILLE,KY,40204,38.2434726000,-85.7352067000,(502) 637-6869
79664,"SMOKEY BONES BAR AND FIRE GRILL",2525 HURSTBOURNE GEM LN,LOUISVILLE,KY,40220,38.2148480000,-85.5927910000,(502) 491-7570
79666,"SUBWAY",719 S BROOK ST,LOUISVILLE,KY,40203,38.2447616000,-85.7517511000,(502) 333-6101
79667,"HEINE BROTHERS COFFEE",3060 BARDSTOWN RD,LOUISVILLE,KY,40205,38.2122776000,-85.6723610000,(502) 821-2657
79712,"PARK TERRACE",9700 STONESTREET RD,LOUISVILLE,KY,40272,38.1138950000,-85.8406500000,(502) 995-6600
79768,"CRAVE CAFE AND CATERING",2250 FRANKFORT AVE,LOUISVILLE,KY,40206,38.2531899000,-85.7038495000,(502) 896-1488
79497,"EAST CHINA",5621 OUTER LOOP,LOUISVILLE,KY,40219,38.1396000000,-85.6563000000,(502) 969-9898
79597,"PENN STATION",3035 PRESTON HIGHWAY,LOUISVILLE,KY,40217,38.2054000000,-85.7361000000,(502) 634-5656
78135,"SUBWAY",1830 BLANKENBAKER LN,LOUISVILLE,KY,40299,.0000000000,.0000000000,(502) 267-9101
78144,"STARBUCKS #11181",3103 S 3RD ST,LOUISVILLE,KY,40214,38.2042773000,-85.7635772000,
77846,"EL NOPAL",12937 SHELBYVILLE ROAD,LOUISVILLE,KY,40243,38.2436000000,-85.5102000000,(502) 253-6802
77884,"EL NOPAL",12613 TAYLORSVILLE RD,LOUISVILLE,KY,40299,38.1894310000,-85.5178142000,(502) 240-6023
77885,"EL NOPAL",6521 PARAMOUNT PARK DR,LOUISVILLE,KY,40213,38.1557532000,-85.7121510000,(502) 968-9836
77887,"HAYMARKET",331 E MARKET ST,LOUISVILLE,KY,40202,38.2545890000,-85.7468490000,(502) 442-0523
78115,"KLONDIKE MANOR",3802 KLONDIKE LN,LOUISVILLE,KY,40218,38.2077720000,-85.6388420000,(502) 452-1579
77775,"LADY FINGERS CATERING",12901 OLD HENRY ROAD,LOUISVILLE,KY,40223,38.2651000000,-85.5135000000,(502) 245-7734
77809,"SKYLINE CHILI #3",4024 DUTCHMANS LN,LOUISVILLE,KY,40207,38.2334440000,-85.6325520000,(502) 721-0093
77810,"CHILIS",9720 VON ALLMEN COURT,LOUISVILLE,KY,40241,38.3112000000,-85.5725000000,(502) 301-8880
77990,"ST. BERNARD CONCESSION",7500 TANGELO DR,LOUISVILLE,KY,40228,38.1466480000,-85.6207500000,(502) 239-5178
77996,"MOJITO TAPAS RESTAURANT",2231 HOLIDAY MANOR CENTER,LOUISVILLE,KY,40222,38.2830913556,-85.6302139798,(502) 425-0949
77732,"WILTSHIRE PANTRY",1310 E BRECKINRIDGE ST,LOUISVILLE,KY,40204,38.2404790000,-85.7308810000,(502) 581-8560
77734,"CULVERS OF LOUISVILLE",4630 S. HURSTBOURNE PARKWAY,LOUISVILLE,KY,40299,38.1839000000,-85.6075000000,(502) 671-2001
77986,"MCALISTERS #1258",12911 SHELBYVILLE RD,LOUISVILLE,KY,40243,38.2441720000,-85.5158060000,(502) 244-5113
77889,"JIMMY JOHNS GOURMET SANDWICHES",415 W. JEFFERSON STREET,LOUISVILLE,KY,40202,38.2541000000,-85.7581000000,(502) 625-7101
77898,"ARBYS #7879",4900 NORTON HEALTH CARE BLVD,LOUISVILLE,KY,40241,38.3123000000,-85.5731000000,(502) 240-1452
77708,"STARBUCKS #11798",3954 TAYLORSVILLE RD,LOUISVILLE,KY,40220,38.2197173000,-85.6265847000,(502) 452-1307
81106,"HIKO-A-MON",1115 HERR LN,LOUISVILLE,KY,40222,38.2661207000,-85.6118949000,(502) 365-1651
81107,"BOMBAY GRILLE",216 N. HURSTBOURNE PARKWAY,LOUISVILLE,KY,40222,38.2484842000,-85.5778783000,(502) 425-8892
80578,"FAIRFIELD INN AND SUITES",100 E JEFFERSON ST,LOUISVILLE,KY,40202,38.2528000000,-85.7512970000,(502) 569-3553
80581,"SPRINGHILL SUITES",132 E JEFFERSON ST,LOUISVILLE,KY,40202,38.2532200000,-85.7511600000,(502) 569-7373
80593,"AFRICAN COFFEE SHOP",737 S 8TH ST,LOUISVILLE,KY,40203,38.2451360000,-85.7648300000,(502) 561-8868
80688,"BEARNOS",4105 DIXIE HWY,LOUISVILLE,KY,40216,38.1891096000,-85.8097127000,(502) 447-3353
81490,"SAKE BLUE JAPANESE BISTRO",9326 CEDAR CENTER WAY,LOUISVILLE,KY,40291,38.1683000000,-85.6506000000,(502) 708-1500
81496,"JIMMY JOHNS #1081",976 BAXTER AVE,LOUISVILLE,KY,40204,38.2399839000,-85.7243279000,(502) 587-0550
81497,"QUE",1019 BARDSTOWN RD,LOUISVILLE,KY,40204,38.2399595000,-85.7235399000,(502) 238-3981
81481,"HARDEES",3459 TAYLOR BLVD,LOUISVILLE,KY,40215,38.1968061000,-85.7825274000,(502) 366-8201
81484,"BLACKSTONE GRILLE",9521 US HWY 42,PROSPECT,KY,40059,.0000000000,.0000000000,(502) 228-6962
